,Unnamed: 0,name,geometry,addr:street,addr:housenumber,centroid,lat,lon,address
0,3672,,"POLYGON ((49.9102825 53.1147163, 49.9114734 53.1151445, 49.9116195 53.1149981, 49.9104286 53.1145699, 49.9102825 53.1147163))",,,POINT (49.91095100000001 53.1148572),53.1148572,49.91095100000001,"Montazhnaya ulitsa, 7, Novokuybyshevsk"
1,3673,,"POLYGON ((49.9089843 53.1142591, 49.9099714 53.1145971, 49.9100802 53.1144827, 49.9090931 53.1141446, 49.9089843 53.1142591))",,,POINT (49.90953219643813 53.114370855738265),53.114370855738265,49.90953219643813,"Montazhnaya ulitsa, 9, Novokuybyshevsk"
2,3674,,"POLYGON ((49.9051273 53.1130709, 49.9054384 53.113182, 49.9055391 53.1130804, 49.905228 53.1129693, 49.9051273 53.1130709))",,,POINT (49.90533320000001 53.113075650000006),53.113075650000006,49.90533320000001,"Montazhnaya ulitsa, 15, Novokuybyshevsk"
3,3675,,"POLYGON ((49.9059749 53.11338, 49.9064925 53.1135684, 49.9066006 53.1134614, 49.906083 53.113273, 49.9059749 53.11338))",,,POINT (49.906287750000004 53.11342070000001),53.11342070000001,49.90628775,"Montazhnaya ulitsa, 13, Novokuybyshevsk"
4,3676,,"POLYGON ((49.9042675 53.1121513, 49.9044435 53.1122247, 49.9045269 53.1121527, 49.9045414 53.1121401, 49.9043475 53.112061, 49.9042675 53.1121513))",,,POINT (49.90440086808641 53.11214370740279),53.11214370740279,49.90440086808641,"Montazhnaya ulitsa, 17-А, Novokuybyshevsk"
5,3681,,"POLYGON ((49.9023378 53.1122531, 49.9017692 53.1120341, 49.9016449 53.1121503, 49.9022135 53.1123693, 49.9023378 53.1122531))",,,POINT (49.90199135 53.1122017),53.1122017,49.90199135,"Montazhnaya ulitsa, 19, Novokuybyshevsk"
6,3683,,"POLYGON ((49.9008062 53.11177, 49.9009725 53.111828, 49.9012271 53.1119167, 49.9013883 53.1119729, 49.9014623 53.1118964, 49.9008803 53.1116935, 49.9008062 53.11177))",,,POINT (49.90113423957313 53.111833192805804),53.11183319280581,49.90113423957313,"Montazhnaya ulitsa, 23, Novokuybyshevsk"
7,3685,,"POLYGON ((49.8992854 53.1119729, 49.8998219 53.1121693, 49.8999656 53.1120279, 49.8994292 53.1118314, 49.8992854 53.1119729))",,,POINT (49.89962549355939 53.1120003634506),53.1120003634506,49.89962549355939,"Montazhnaya ulitsa, 14, Novokuybyshevsk"
8,3687,,"POLYGON ((49.9026811 53.112443, 49.9032927 53.1126588, 49.9035578 53.112388, 49.9029463 53.1121722, 49.9026811 53.112443))",,,POINT (49.903119467379184 53.112415501000896),53.112415501000896,49.903119467379184,"Montazhnaya ulitsa, 17, Novokuybyshevsk"
9,3689,,"POLYGON ((49.903636 53.1116879, 49.9038364 53.1117584, 49.904102 53.1114863, 49.9039015 53.1114158, 49.903636 53.1116879))",,,POINT (49.903868984826126 53.111587092143886),53.111587092143886,49.903868984826126,"Montazhnaya ulitsa, 17-В, Novokuybyshevsk"
10,3701,,"POLYGON ((49.9068868 53.1106012, 49.9086726 53.1112301, 49.9088341 53.1110649, 49.9070483 53.110436, 49.9068868 53.1106012))",,,POINT (49.907860450000015 53.110833050000004),53.11083305,49.907860450000015,"Montazhnaya ulitsa, 17-Б, Novokuybyshevsk"
11,3705,,"POLYGON ((49.9470864 53.0840791, 49.9472059 53.083932, 49.9473886 53.0839856, 49.9472692 53.0841327, 49.9470864 53.0840791))",,,POINT (49.94723751814845 53.084032354698174),53.084032354698174,49.94723751814845,"ulitsa Kirova, 8В, Novokuybyshevsk"
12,3706,,"POLYGON ((49.9623337 53.1021354, 49.9624025 53.1019226, 49.9625896 53.1019445, 49.9625207 53.1021573, 49.9623337 53.1021354))",,,POINT (49.962461628781725 53.102039940962236),53.10203994096224,49.962461628781725,"Priozernyy pereulok, 9, Novokuybyshevsk"
13,3707,Ковчег,"POLYGON ((49.8923715 53.0688943, 49.8924322 53.0688341, 49.8925844 53.0688896, 49.8925237 53.0689498, 49.8923715 53.0688943))",,,POINT (49.89247795 53.06889195000001),53.06889195000001,49.89247795,"2-ya Promyshlennaya ulitsa, 4А, Novokuybyshevsk"
14,3709,,"POLYGON ((49.9557084 53.1012246, 49.9557685 53.1011181, 49.9559396 53.1011528, 49.9558795 53.1012594, 49.9557084 53.1012246))",,,POINT (49.95582401052503 53.10118873006475),53.10118873006475,49.95582401052503,"prospekt Pobedy, 11А, Novokuybyshevsk"
15,3712,,"POLYGON ((49.9549179 53.1020041, 49.954948 53.1019338, 49.9550604 53.1019511, 49.9550303 53.1020215, 49.9549179 53.1020041))",,,POINT (49.95498916159385 53.10197762902123),53.10197762902123,49.95498916159385,"ulitsa Udarnikov, 15, Novokuybyshevsk"
16,3714,,"POLYGON ((49.9458597 53.0978533, 49.9458587 53.0978423, 49.945852 53.0978321, 49.9458404 53.0978236, 49.9458249 53.0978177, 49.9458072 53.0978149, 49.9457889 53.0978156, 49.9457719 53.0978196, 49.9457578 53.0978267, 49.9457473 53.097837, 49.9457433 53.0978489, 49.9457463 53.0978609, 49.9457559 53.0978716, 49.945771 53.0978797, 49.9457898 53.0978841, 49.9458101 53.0978845, 49.9458293 53.0978807, 49.9458451 53.0978732, 49.9458551 53.0978639, 49.9458597 53.0978533))",,,POINT (49.94580168488897 53.097849781224085),53.097849781224085,49.94580168488897,"Kommunisticheskaya ulitsa, 41, Novokuybyshevsk"
17,3715,,"POLYGON ((49.9530936 53.1021392, 49.9531238 53.1020935, 49.953162 53.1021026, 49.9531756 53.1020819, 49.9532909 53.1021093, 49.9532471 53.1021757, 49.9530936 53.1021392))",,,POINT (49.95319583985536 53.10212733196273),53.10212733196273,49.95319583985536,"pereulok Gogolya, 12, Novokuybyshevsk"
18,3716,,"POLYGON ((49.9540832 53.102565, 49.9541569 53.1024557, 49.9543239 53.1024963, 49.9542502 53.1026056, 49.9540832 53.102565))",,,POINT (49.954203549999995 53.102530650000006),53.102530650000006,49.95420355,"ulitsa Gor'kogo, 19С1, Novokuybyshevsk"
19,3717,,"POLYGON ((49.9544826 53.1027681, 49.954537 53.1026912, 49.9546594 53.1027225, 49.9546432 53.1027453, 49.954687 53.1027565, 49.9546487 53.1028105, 49.9544826 53.1027681))",,,POINT (49.95458604216697 53.10275183075102),53.10275183075102,49.95458604216697,"ulitsa Mendeleyeva, 4, Novokuybyshevsk"
20,3719,,"POLYGON ((49.9654471 53.0881533, 49.965443 53.0882478, 49.9656046 53.0882503, 49.9656087 53.0881557, 49.9654471 53.0881533))",,,POINT (49.9655258642244 53.08820177542708),53.08820177542708,49.9655258642244,"Kiyevskaya ulitsa, 15V, Novokuybyshevsk"
21,3721,,"POLYGON ((49.9570422 53.0897959, 49.9573162 53.0900564, 49.9575805 53.0899561, 49.9576717 53.0900429, 49.9580893 53.0898845, 49.9580207 53.0898227, 49.9578256 53.0898946, 49.9578523 53.0899207, 49.9577456 53.0899601, 49.9576692 53.0898853, 49.9576268 53.089901, 49.9575676 53.0898431, 49.9574549 53.0898847, 49.9574796 53.0899089, 49.9573968 53.0899395, 49.9572654 53.0898111, 49.957217 53.0898289, 49.9571666 53.0897798, 49.9572184 53.0897606, 49.9571956 53.0897378, 49.9570422 53.0897959))",,,POINT (49.95750649272944 53.08991778719595),53.08991778719595,49.95750649272944,"Molodezhnaya ulitsa, 2, Novokuybyshevsk"
22,3723,,"POLYGON ((49.9753497 53.0916687, 49.9753962 53.0917159, 49.9754821 53.0916854, 49.9754356 53.0916382, 49.9753497 53.0916687))",,,POINT (49.97541590000001 53.09167705000001),53.09167705000001,49.97541590000001,"ulitsa Sverdlova, 20А, Novokuybyshevsk"
23,3727,,"POLYGON ((49.9742005 53.0876312, 49.9743873 53.0875709, 49.9745355 53.0875621, 49.9745284 53.0875189, 49.9746799 53.0875102, 49.9746968 53.0875972, 49.9747582 53.0875929, 49.9747787 53.087721, 49.9744543 53.0877401, 49.9744392 53.0876532, 49.9742074 53.0876695, 49.9742005 53.0876312))",,,POINT (49.974543544751256 53.087633981008054),53.08763398100805,49.974543544751256,"ulitsa Sverdlova, 29Б, Novokuybyshevsk"
24,3729,,"POLYGON ((49.9714303 53.0904156, 49.9714888 53.0903785, 49.9716057 53.090445, 49.9715472 53.0904821, 49.9714303 53.0904156))",,,POINT (49.971517999999996 53.090430299999994),53.0904303,49.971518,"Kiyevskaya ulitsa, 82, Novokuybyshevsk"
25,3731,,"POLYGON ((49.9660412 53.0900809, 49.9662927 53.0899827, 49.9663784 53.0900618, 49.9661269 53.09016, 49.9660412 53.0900809))",,,POINT (49.9662098 53.09007135),53.09007135,49.9662098,"ulitsa Dzerzhinskogo, 16Б, Novokuybyshevsk"
26,3732,,"POLYGON ((49.967999 53.0893064, 49.9680615 53.0893691, 49.9681873 53.0894952, 49.9683409 53.0894399, 49.9682099 53.0893086, 49.9681525 53.0892512, 49.967999 53.0893064))",,,POINT (49.968169943823185 53.08937318386228),53.08937318386228,49.96816994382319,"Kiyevskaya ulitsa, 82Д, Novokuybyshevsk"
27,3733,,"POLYGON ((49.968609 53.0894738, 49.9686722 53.0894442, 49.968684 53.0894533, 49.968739 53.0894956, 49.9686758 53.0895252, 49.968609 53.0894738))",,,POINT (49.96867399682455 53.0894847026462),53.0894847026462,49.96867399682455,"Kiyevskaya ulitsa, 82Г, Novokuybyshevsk"
28,3735,Пятёрочка,"POLYGON ((49.9802134 53.0934146, 49.9802735 53.0934738, 49.9803384 53.0934501, 49.980377 53.0934881, 49.9804562 53.0934591, 49.9806509 53.0936508, 49.9804095 53.0937392, 49.9803629 53.0936933, 49.9800528 53.093388, 49.9802149 53.0933286, 49.9802271 53.0933406, 49.9802199 53.0933432, 49.9802709 53.0933935, 49.9802134 53.0934146))",,,POINT (49.98035971682771 53.09354847804037),53.09354847804037,49.98035971682771,"prospekt Pobedy, 23, Novokuybyshevsk"
29,3737,,"POLYGON ((49.9863593 53.0910957, 49.9864038 53.0911388, 49.9866341 53.0910531, 49.9865897 53.0910101, 49.9863593 53.0910957))",,,POINT (49.98649668083776 53.0910744414713),53.0910744414713,49.98649668083776,"prospekt Pobedy, 37, Novokuybyshevsk"
30,3739,,"POLYGON ((49.9906317 53.0919055, 49.990701 53.0918617, 49.9907987 53.0919176, 49.9907293 53.0919613, 49.9906317 53.0919055))",,,POINT (49.99071517884851 53.09191151754931),53.09191151754931,49.99071517884851,"ulitsa Voroshilova, 14Б, Novokuybyshevsk"
31,3740,,"POLYGON ((49.9823925 53.0933914, 49.9824445 53.093309, 49.9825405 53.0933308, 49.9824884 53.0934132, 49.9823925 53.0933914))",,,POINT (49.98246648088122 53.09336109417972),53.09336109417972,49.98246648088122,"ulitsa Sverdlova, 9Б, Novokuybyshevsk"
32,3741,,"POLYGON ((49.988754 53.0915437, 49.9889537 53.0916705, 49.9890005 53.0916439, 49.9891321 53.0917275, 49.9890853 53.0917541, 49.9892638 53.0918674, 49.98934 53.0918241, 49.9891745 53.0917191, 49.9892116 53.091698, 49.9890797 53.0916143, 49.9890328 53.091641, 49.9888203 53.091506, 49.988754 53.0915437))",,,POINT (49.98906557246588 53.09168562246006),53.09168562246006,49.98906557246588,"prospekt Pobedy, 41A, Novokuybyshevsk"
33,3744,,"POLYGON ((49.9959742 53.0908922, 49.9960408 53.0907997, 49.9961383 53.0908251, 49.9961011 53.0908767, 49.9961409 53.0908871, 49.9961115 53.0909278, 49.9959742 53.0908922))",,,POINT (49.99606388015443 53.09086527072269),53.09086527072269,49.99606388015443,"Zelenaya ulitsa, 22, Novokuybyshevsk"
34,3752,,"POLYGON ((49.9935083 53.0919301, 49.9936058 53.0918639, 49.9937485 53.0919397, 49.9936835 53.0919838, 49.9936529 53.0919675, 49.9936202 53.0919896, 49.9935083 53.0919301))",,,POINT (49.99362656569713 53.09193089697549),53.09193089697549,49.99362656569713,"Podgornaya ulitsa, 17Б, Novokuybyshevsk"
35,3760,,"POLYGON ((49.9913621 53.093265, 49.991435 53.0932163, 49.9915104 53.0932571, 49.9915668 53.0932195, 49.991644 53.0932613, 49.9915145 53.0933475, 49.9913621 53.093265))",,,POINT (49.99150358725846 53.09327552481611),53.09327552481611,49.99150358725846,"Podgornaya ulitsa, 3, Novokuybyshevsk"
36,3761,,"POLYGON ((49.9909876 53.0934678, 49.9910168 53.0934494, 49.9909762 53.0934262, 49.9910439 53.0933834, 49.9911384 53.0934373, 49.9911114 53.0934544, 49.9911649 53.0934849, 49.9910949 53.0935291, 49.9909876 53.0934678))",,,POINT (49.991068165123686 53.09345658135748),53.09345658135748,49.991068165123686,"Podgornaya ulitsa, 1, Novokuybyshevsk"
37,3762,,"POLYGON ((49.995871 53.0912124, 49.9959341 53.0911254, 49.9958349 53.0910994, 49.9957718 53.0911864, 49.995871 53.0912124))",,,POINT (49.99585295 53.091155900000004),53.0911559,49.99585295,"Zelenaya ulitsa, 20, Novokuybyshevsk"
38,3763,,"POLYGON ((49.9920106 53.0896417, 49.9921349 53.0895914, 49.992184 53.0896352, 49.9920596 53.0896854, 49.9920106 53.0896417))",,,POINT (49.99209729761369 53.0896384155066),53.0896384155066,49.99209729761369,"ulitsa Budennogo, 5А, Novokuybyshevsk"
39,3764,,"POLYGON ((49.9933035 53.090835, 49.993411 53.0907714, 49.9934649 53.0908042, 49.9933574 53.0908679, 49.9933035 53.090835))",,,POINT (49.99338418964509 53.09081963530936),53.09081963530936,49.99338418964509,"ulitsa Voroshilova, 22, Novokuybyshevsk"
40,3765,,"POLYGON ((49.9775248 53.0950253, 49.9776355 53.0949823, 49.9776914 53.0950342, 49.9775806 53.0950771, 49.9775248 53.0950253))",,,POINT (49.97760809219546 53.095029718030446),53.095029718030446,49.97760809219546,"prospekt Pobedy, 19А, Novokuybyshevsk"
41,3766,,"POLYGON ((49.9754304 53.0965433, 49.9755165 53.0965095, 49.9755944 53.096581, 49.9755082 53.0966148, 49.9754304 53.0965433))",,,POINT (49.975512383036715 53.09656215376311),53.09656215376311,49.97551238303672,"ulitsa Dzerzhinskogo, 38А, Novokuybyshevsk"
42,3769,,"POLYGON ((49.9733207 53.0958107, 49.9734548 53.0957619, 49.9734991 53.0958058, 49.973365 53.0958546, 49.9733207 53.0958107))",,,POINT (49.9734099 53.09580825),53.09580825,49.9734099,"prospekt Pobedy, 15A, Novokuybyshevsk"
43,3770,,"POLYGON ((49.9725695 53.0964706, 49.9726273 53.0964215, 49.9727394 53.0964692, 49.9726816 53.0965182, 49.9725695 53.0964706))",,,POINT (49.97265444068426 53.096469866743426),53.09646986674343,49.97265444068426,"prospekt Pobedy, 11, Novokuybyshevsk"
44,3771,,"POLYGON ((49.9778731 53.1008671, 49.9779109 53.1007824, 49.9779898 53.1007951, 49.977952 53.1008798, 49.9778731 53.1008671))",,,POINT (49.97793145 53.10083110000001),53.10083110000001,49.97793145,"ulitsa Dzerzhinskogo, 49Б, Novokuybyshevsk"
45,3772,,"POLYGON ((49.9610782 53.0987434, 49.96114 53.0988016, 49.9612342 53.0987655, 49.9611723 53.0987073, 49.9610782 53.0987434))",,,POINT (49.96115618256203 53.09875445225184),53.09875445225184,49.96115618256203,"ulitsa Ostrovskogo, 17Б, Novokuybyshevsk"
46,3773,,"POLYGON ((49.9433603 53.0920126, 49.9435237 53.0920226, 49.943457 53.0924128, 49.9432938 53.0924028, 49.9433603 53.0920126))",,,POINT (49.94340870714971 53.09221266061337),53.09221266061337,49.94340870714971,"ulitsa Repina, 4С1, Novokuybyshevsk"
47,3775,,"POLYGON ((49.9548 53.0902062, 49.9548076 53.0901451, 49.9549517 53.0901515, 49.9549441 53.0902127, 49.9548 53.0902062))",,,POINT (49.954875869474535 53.0901788763112),53.0901788763112,49.954875869474535,"ulitsa Gagarina, 26, Novokuybyshevsk"
48,3776,,"POLYGON ((49.9455225 53.0934864, 49.9455349 53.0934348, 49.9456902 53.0934483, 49.9456778 53.0934999, 49.9455225 53.0934864))",,,POINT (49.94560635 53.09346735),53.09346735,49.94560635,"ulitsa Repina, 3, Novokuybyshevsk"
49,3777,,"POLYGON ((49.9446499 53.0951035, 49.9446644 53.0949983, 49.9447573 53.0950029, 49.9447428 53.0951081, 49.9446499 53.0951035))",,,POINT (49.94470359999999 53.0950532),53.0950532,49.94470359999999,"ulitsa Chernyshevskogo, 5, Novokuybyshevsk"
50,3782,,"POLYGON ((49.9501535 53.0956388, 49.9501392 53.0957321, 49.9502384 53.0957375, 49.9502526 53.0956442, 49.9501535 53.0956388))",,,POINT (49.95019592333386 53.09568815775091),53.09568815775091,49.95019592333386,"ulitsa Chernyshevskogo, 11А, Novokuybyshevsk"
51,3783,,"POLYGON ((49.9538333 53.0981778, 49.9538948 53.0982395, 49.9539926 53.0982044, 49.9540076 53.0982194, 49.9540788 53.0981938, 49.9540024 53.0981171, 49.9538333 53.0981778))",,,POINT (49.95395668754265 53.09818023593799),53.09818023593799,49.95395668754265,"ulitsa Pirogova, 1С1, Novokuybyshevsk"
52,3784,,"POLYGON ((49.9530707 53.0977706, 49.9531134 53.0977531, 49.9531717 53.0978118, 49.95322 53.0977927, 49.9535066 53.0976794, 49.9535978 53.0976433, 49.9536265 53.0976705, 49.9535337 53.0977061, 49.9532452 53.0978166, 49.9531537 53.0978517, 49.9531226 53.0978208, 49.9530707 53.0977706))",,,POINT (49.953338550390434 53.09775362983901),53.09775362983901,49.953338550390434,"ulitsa Pirogova, 1К2, Novokuybyshevsk"
53,3785,,"POLYGON ((49.9522954 53.0970186, 49.9523872 53.0971142, 49.9525438 53.0970599, 49.9524991 53.0970133, 49.9524141 53.0970427, 49.9523672 53.0969938, 49.9522954 53.0970186))",,,POINT (49.95241443913483 53.0970530055955),53.0970530055955,49.95241443913483,"ulitsa Pirogova, 1К1, Novokuybyshevsk"
54,3786,,"POLYGON ((49.9719711 53.1013433, 49.9720231 53.1013967, 49.9721463 53.1013536, 49.9720943 53.1013001, 49.9719711 53.1013433))",,,POINT (49.97205871177414 53.10134841735887),53.10134841735887,49.97205871177414,"ulitsa Ostrovskogo, 32, Novokuybyshevsk"
55,3787,,"POLYGON ((49.9765161 53.0997578, 49.9765853 53.0996298, 49.9766766 53.0996476, 49.976624 53.0997447, 49.9767085 53.0997612, 49.9766751 53.0998229, 49.9765774 53.0998038, 49.9765941 53.099773, 49.9765161 53.0997578))",,,POINT (49.97661227742146 53.099729174541906),53.09972917454191,49.97661227742146,"ulitsa Dzerzhinskogo, 41А, Novokuybyshevsk"
56,3788,,"POLYGON ((49.9767024 53.0993684, 49.9767281 53.0993244, 49.9768117 53.099342, 49.976786 53.099386, 49.9767024 53.0993684))",,,POINT (49.97675705 53.099355200000005),53.099355200000005,49.97675705,"ulitsa Dzerzhinskogo, 41, Novokuybyshevsk"
57,3789,,"POLYGON ((49.9717132 53.1023246, 49.9717381 53.1022956, 49.9718229 53.1023218, 49.971798 53.1023508, 49.9717132 53.1023246))",,,POINT (49.97176805 53.1023232),53.1023232,49.97176805,"ulitsa Ostrovskogo, 25Б, Novokuybyshevsk"
58,3794,,"POLYGON ((49.9656304 53.1023414, 49.9657382 53.1022127, 49.9658754 53.1022541, 49.9657676 53.1023828, 49.9656304 53.1023414))",,,POINT (49.9657529 53.10229775),53.10229775,49.9657529,"Oktyabr'skaya ulitsa, 92, Novokuybyshevsk"
59,3799,,"POLYGON ((49.9397305 53.0936579, 49.9397128 53.0937675, 49.9398595 53.093776, 49.9398772 53.0936665, 49.9397305 53.0936579))",,,POINT (49.939794989105756 53.09371697335959),53.09371697335959,49.93979498910576,"ulitsa Kirova, 8Г, Novokuybyshevsk"
60,3800,,"POLYGON ((49.9388611 53.0935437, 49.9388294 53.0937274, 49.9389279 53.0937335, 49.938951 53.0935999, 49.9390305 53.0936049, 49.9390392 53.0935548, 49.9388611 53.0935437))",,,POINT (49.938912656626236 53.093627554057036),53.09362755405704,49.93891265662624,"poselok Zavodskoye Snp, 37, Novokuybyshevsk"
61,3801,,"POLYGON ((49.9483298 53.1009903, 49.9483994 53.1010577, 49.9483295 53.1010838, 49.9482599 53.1010163, 49.9483298 53.1009903))",,,POINT (49.94832964994658 53.101037033317475),53.10103703331748,49.94832964994658,"Kommunisticheskaya ulitsa, 30, Novokuybyshevsk"
62,3802,,"POLYGON ((49.9457816 53.1039303, 49.9460959 53.1042377, 49.946521 53.104081, 49.9462067 53.1037737, 49.9457816 53.1039303))",,,POINT (49.94615129620482 53.10400568255982),53.10400568255982,49.94615129620482,"ulitsa Suvorova, 16А, Novokuybyshevsk"
63,3803,,"POLYGON ((49.9448985 53.1034909, 49.9452267 53.1033716, 49.9453023 53.1034465, 49.9449741 53.1035659, 49.9448985 53.1034909))",,,POINT (49.94510037471854 53.10346873611316),53.10346873611316,49.94510037471854,"ulitsa Suvorova, 16, Novokuybyshevsk"
64,3807,,"POLYGON ((49.9413173 53.0960252, 49.9413361 53.0959146, 49.9414554 53.0959219, 49.9414366 53.0960325, 49.9413173 53.0960252))",,,POINT (49.941386349999995 53.095973550000004),53.09597355,49.94138635,"ulitsa Uspenskogo, 2К1, Novokuybyshevsk"
65,3809,,"POLYGON ((49.947892 53.0971324, 49.9479538 53.0971368, 49.9479283 53.0973019, 49.9480437 53.0973087, 49.9480852 53.0970869, 49.9479016 53.0970742, 49.947892 53.0971324))",,,POINT (49.947995885455754 53.09718243670162),53.09718243670162,49.94799588545576,"ulitsa Frunze, 22, Novokuybyshevsk"
66,3810,,"POLYGON ((49.9404542 53.0968963, 49.9406214 53.0969057, 49.9406271 53.0968689, 49.9404599 53.0968596, 49.9404542 53.0968963))",,,POINT (49.940540687544136 53.0968826273836),53.0968826273836,49.940540687544136,"ulitsa Chapayeva, 2Б, Novokuybyshevsk"
67,3812,,"POLYGON ((49.9418949 53.0953419, 49.9419071 53.0952624, 49.9423713 53.0952881, 49.9423592 53.0953675, 49.9418949 53.0953419))",,,POINT (49.94213307386281 53.0953149733827),53.0953149733827,49.94213307386281,"ulitsa Chernyshevskogo, 1Б, Novokuybyshevsk"
68,3813,,"POLYGON ((49.9474115 53.1017757, 49.9474991 53.1018577, 49.9475946 53.1018209, 49.947507 53.101739, 49.9474115 53.1017757))",,,POINT (49.94750304890869 53.10179833306393),53.10179833306393,49.94750304890869,"Sovetskaya ulitsa, 5, Novokuybyshevsk"
69,3814,,"POLYGON ((49.939598 53.1033784, 49.9397828 53.1033832, 49.9397684 53.1035843, 49.9395835 53.1035795, 49.939598 53.1033784))",,,POINT (49.939683174151256 53.10348135904386),53.10348135904386,49.939683174151256,"ulitsa Michurina, 18, Novokuybyshevsk"
70,3815,,"POLYGON ((49.9385755 53.1007293, 49.938573 53.1008146, 49.938571 53.1008815, 49.9386915 53.1008828, 49.9386935 53.1008161, 49.9386961 53.1007306, 49.9385755 53.1007293))",,,POINT (49.93863352692719 53.10080603901123),53.10080603901123,49.93863352692719,"poselok Zavodskoye Snp, 301Б, Novokuybyshevsk"
71,3817,,"POLYGON ((49.9370334 53.1047518, 49.937347 53.104706, 49.9373863 53.104803, 49.9370727 53.1048488, 49.9370334 53.1047518))",,,POINT (49.937209849999995 53.1047774),53.1047774,49.93720985,"ulitsa Michurina, 31, Novokuybyshevsk"
72,3818,,"POLYGON ((49.9366055 53.1043602, 49.9366848 53.1043056, 49.9368507 53.1045591, 49.9367508 53.1045826, 49.9366055 53.1043602))",,,POINT (49.93672395832473 53.104451493777006),53.104451493777006,49.93672395832473,"ulitsa Michurina, 31Б, Novokuybyshevsk"
73,3819,,"POLYGON ((49.9541611 53.1055513, 49.9542033 53.1055948, 49.9543236 53.1055527, 49.9542814 53.1055092, 49.9541611 53.1055513))",,,POINT (49.95424235000001 53.105552),53.105552,49.95424235000001,"ulitsa Bocharikova, 8А, Novokuybyshevsk"
74,3820,,"POLYGON ((49.953675 53.104977, 49.9537389 53.1050462, 49.9538523 53.1050084, 49.9537884 53.1049392, 49.953675 53.104977))",,,POINT (49.95376364999999 53.1049927),53.1049927,49.95376364999999,"ulitsa Bocharikova, 12А, Novokuybyshevsk"
75,3822,,"POLYGON ((49.9609128 53.1062037, 49.960954 53.1061596, 49.961051 53.1061924, 49.9610098 53.1062364, 49.9609128 53.1062037))",,,POINT (49.960981888569684 53.106198017601265),53.10619801760127,49.96098188856968,"Volzhskaya ulitsa, 32, Novokuybyshevsk"
76,3823,,"POLYGON ((49.9624159 53.1049435, 49.9624239 53.105018, 49.9625215 53.1050142, 49.9625135 53.1049398, 49.9624159 53.1049435))",,,POINT (49.962468689193464 53.10497887609826),53.10497887609826,49.96246868919346,"ulitsa Klary Tsetkin, 24, Novokuybyshevsk"
77,3825,,"POLYGON ((49.9568996 53.1032954, 49.9569555 53.1032096, 49.9571382 53.1032524, 49.9570823 53.1033382, 49.9568996 53.1032954))",,,POINT (49.9570189 53.10327389999999),53.10327389999999,49.9570189,"ulitsa Udarnikov, 4, Novokuybyshevsk"
78,3827,,"POLYGON ((49.9569869 53.1051622, 49.9570635 53.1053843, 49.9572354 53.105363, 49.9571589 53.1051409, 49.9569869 53.1051622))",,,POINT (49.95711117067554 53.10526258977189),53.10526258977189,49.95711117067554,"ulitsa Bocharikova, 5, Novokuybyshevsk"
79,3828,,"POLYGON ((49.9566353 53.1057269, 49.9567659 53.1056722, 49.9567934 53.1056959, 49.9568313 53.10568, 49.9568854 53.1057266, 49.9567168 53.1057971, 49.9566353 53.1057269))",,,POINT (49.956757201879896 53.105730879991725),53.105730879991725,49.956757201879896,"ulitsa Bocharikova, 1, Novokuybyshevsk"
80,3833,,"POLYGON ((49.9798764 53.0874916, 49.9800765 53.0874198, 49.9801711 53.0875149, 49.979971 53.0875868, 49.9798764 53.0874916))",,,POINT (49.980023739971934 53.08750328254047),53.08750328254047,49.980023739971934,"ulitsa Karbysheva, 28А, Novokuybyshevsk"
81,3835,,"POLYGON ((49.9837118 53.0934138, 49.9838161 53.0933488, 49.9839298 53.0934146, 49.9840943 53.093312, 49.9842491 53.0934016, 49.9842796 53.0934748, 49.9842257 53.0935066, 49.9843275 53.0935689, 49.9841658 53.0936642, 49.9841515 53.0936555, 49.9840525 53.0936706, 49.9840946 53.0937702, 49.9839076 53.093874, 49.9838209 53.0936925, 49.9839463 53.0936709, 49.983936 53.0936494, 49.983706 53.0935162, 49.983794 53.0934614, 49.9837118 53.0934138))",,,POINT (49.98401063821124 53.093552717879085),53.093552717879085,49.98401063821124,"ulitsa Voroshilova, 5В, Novokuybyshevsk"
82,3837,,"POLYGON ((49.9896098 53.0866411, 49.989718 53.0865013, 49.989921 53.0865579, 49.9898129 53.0866977, 49.9896098 53.0866411))",,,POINT (49.98976541857341 53.086599503946104),53.0865995039461,49.98976541857341,"ulitsa Karbysheva, 7, Novokuybyshevsk"
83,3839,,"POLYGON ((49.98059 53.0895512, 49.9806644 53.0896288, 49.9807937 53.0895841, 49.9807194 53.0895065, 49.98059 53.0895512))",,,POINT (49.98069186779526 53.08956764749041),53.08956764749041,49.98069186779526,"prospekt Pobedy, 40Д, Novokuybyshevsk"
84,3842,,"POLYGON ((49.9497742 53.0823794, 49.9497716 53.0824342, 49.9499123 53.0824366, 49.949915 53.0823818, 49.9497742 53.0823794))",,,POINT (49.94984327552142 53.08240799676437),53.08240799676437,49.94984327552142,"kvartal 1-y, 19, Voskresenka"
85,3845,,"POLYGON ((49.9520002 53.0852745, 49.9519914 53.0853292, 49.9521082 53.0853359, 49.952117 53.0852813, 49.9520002 53.0852745))",,,POINT (49.95205418245407 53.085305223358134),53.08530522335813,49.95205418245407,"ulitsa Mironova, 29, Novokuybyshevsk"
86,3846,,"POLYGON ((49.9633783 53.096741, 49.9634619 53.0967076, 49.9635406 53.0967787, 49.9634569 53.0968121, 49.9633783 53.096741))",,,POINT (49.96345943315014 53.096759853828885),53.096759853828885,49.96345943315014,"ulitsa Ostrovskogo, 16А, Novokuybyshevsk"
87,3859,,"POLYGON ((49.9539829 53.1120027, 49.9542028 53.11195, 49.9542936 53.1120866, 49.9541226 53.1121276, 49.9540823 53.1120671, 49.9540335 53.1120788, 49.9539829 53.1120027))",,,POINT (49.95414482655399 53.11203826369401),53.11203826369401,49.95414482655399,"ulitsa Chkalova, 19А, Novokuybyshevsk"
88,3864,,"POLYGON ((49.9934577 53.0923482, 49.9935704 53.0922837, 49.9936776 53.0923514, 49.9935649 53.0924158, 49.9934577 53.0923482))",,,POINT (49.99356765069349 53.09234976667676),53.09234976667676,49.99356765069349,"Podgornaya ulitsa, 26, Novokuybyshevsk"
89,3866,,"POLYGON ((49.9940753 53.0922499, 49.99419 53.0921795, 49.99431 53.0922499, 49.9941954 53.0923204, 49.9940753 53.0922499))",,,POINT (49.99419266730542 53.09224993333334),53.09224993333334,49.99419266730542,"Podgornaya ulitsa, 28, Novokuybyshevsk"
90,3868,,"POLYGON ((49.994204 53.0919197, 49.9942783 53.0919632, 49.9942391 53.0919874, 49.9942732 53.0920074, 49.9943896 53.0919358, 49.9942812 53.0918722, 49.994204 53.0919197))",,,POINT (49.99429390729757 53.0919356793748),53.0919356793748,49.99429390729757,"Podgornaya ulitsa, 32, Novokuybyshevsk"
91,3869,,"POLYGON ((49.9942707 53.0937364, 49.9943927 53.0936646, 49.9945007 53.0937308, 49.9943787 53.0938026, 49.9942707 53.0937364))",,,POINT (49.9943857 53.0937336),53.0937336,49.9943857,"Zheleznodorozhnaya ulitsa, 111, Novokuybyshevsk"
92,3870,,"POLYGON ((49.9944757 53.0932976, 49.9946032 53.0932323, 49.9947116 53.0933086, 49.9945841 53.0933739, 49.9944757 53.0932976))",,,POINT (49.994593650000006 53.0933031),53.0933031,49.994593650000006,"Zheleznodorozhnaya ulitsa, 115, Novokuybyshevsk"
93,3875,,"POLYGON ((49.9965335 53.0909098, 49.9966597 53.0908832, 49.9967089 53.0909674, 49.9965827 53.090994, 49.9965335 53.0909098))",,,POINT (49.9966212 53.090938599999994),53.0909386,49.9966212,"Novaya ulitsa, 11, Novokuybyshevsk"
94,3877,,"POLYGON ((49.9978377 53.0902323, 49.9979231 53.0903066, 49.9980746 53.0902438, 49.9979892 53.0901695, 49.9978377 53.0902323))",,,POINT (49.99795614999999 53.09023804999999),53.09023804999999,49.99795614999999,"Zheleznodorozhnaya ulitsa, 135И, Novokuybyshevsk"
95,3881,,"POLYGON ((49.9983496 53.0906981, 49.9984099 53.090777, 49.9985457 53.0907396, 49.9984854 53.0906607, 49.9983496 53.0906981))",,,POINT (49.998447649999996 53.090718849999995),53.09071885,49.99844765,"Zheleznodorozhnaya ulitsa, 135-Д, Novokuybyshevsk"
96,3884,,"POLYGON ((49.9980367 53.0915132, 49.998129 53.0916621, 49.9982978 53.0916243, 49.9982054 53.0914754, 49.9980367 53.0915132))",,,POINT (49.998167230861654 53.091568756040076),53.09156875604008,49.99816723086165,"Novaya ulitsa, 20, Novokuybyshevsk"
97,3885,,"POLYGON ((49.9944278 53.0916178, 49.9945427 53.0915324, 49.9946399 53.0915795, 49.994525 53.0916649, 49.9944278 53.0916178))",,,POINT (49.99453384999999 53.091598649999995),53.09159865,49.99453384999999,"Podgornaya ulitsa, 34, Novokuybyshevsk"
98,3888,,"POLYGON ((49.9924534 53.0931275, 49.9925906 53.09307, 49.9926461 53.0931177, 49.9925089 53.0931752, 49.9924534 53.0931275))",,,POINT (49.99254975000001 53.093122599999994),53.0931226,49.99254975000001,"Podgornaya ulitsa, 12А, Novokuybyshevsk"
99,3890,,"POLYGON ((49.9930631 53.0937157, 49.99319 53.0936642, 49.9932841 53.0937478, 49.9931572 53.0937993, 49.9930631 53.0937157))",,,POINT (49.99317359999999 53.09373175),53.09373175,49.99317359999999,"Zheleznodorozhnaya ulitsa, 109А, Novokuybyshevsk"
100,3891,,"POLYGON ((49.9916867 53.0938788, 49.9917752 53.0938315, 49.9918514 53.093883, 49.9917629 53.0939303, 49.9916867 53.0938788))",,,POINT (49.99176905 53.0938809),53.0938809,49.99176905,"Podgornaya ulitsa, 2, Novokuybyshevsk"
101,3892,,"POLYGON ((49.9918375 53.0937321, 49.9919045 53.093697, 49.9920299 53.0937831, 49.9919629 53.0938183, 49.9918375 53.0937321))",,,POINT (49.99193370919804 53.09375763577149),53.09375763577149,49.99193370919804,"Podgornaya ulitsa, 4, Novokuybyshevsk"
102,3898,,"POLYGON ((49.9304118 53.1186128, 49.9306025 53.1187651, 49.930794 53.1186788, 49.9307455 53.11864, 49.9306948 53.1186629, 49.9305525 53.1185493, 49.9304118 53.1186128))",,,POINT (49.93059154858512 53.118658354780415),53.118658354780415,49.93059154858512,"Molodogvardeyskaya ulitsa, 10, Novokuybyshevsk"
103,3899,,"POLYGON ((49.9301643 53.1197905, 49.930259 53.1197483, 49.930295 53.1197774, 49.9302002 53.1198196, 49.9301643 53.1197905))",,,POINT (49.9302296348351 53.11978394817899),53.11978394817899,49.9302296348351,"Molodogvardeyskaya ulitsa, 11, Novokuybyshevsk"
104,3901,,"POLYGON ((49.9337343 53.1139338, 49.933759 53.1141195, 49.933896 53.1141129, 49.9339318 53.1141112, 49.9339071 53.1139255, 49.9337343 53.1139338))",,,POINT (49.933833048470966 53.11402249518348),53.11402249518348,49.933833048470966,"ulitsa Mira, 18Б, Novokuybyshevsk"
105,3902,,"POLYGON ((49.9324457 53.1139027, 49.9324642 53.1139498, 49.9326352 53.1139255, 49.9326166 53.1138784, 49.9325797 53.1138837, 49.9324457 53.1139027))",,,POINT (49.93254042623151 53.11391411542814),53.11391411542814,49.93254042623151,"ulitsa Mira, 20А, Novokuybyshevsk"
106,3904,,"POLYGON ((49.9356193 53.1142372, 49.9357595 53.1142237, 49.9357733 53.114276, 49.9356332 53.1142894, 49.9356193 53.1142372))",,,POINT (49.935696343690076 53.11425656927601),53.11425656927601,49.93569634369008,"prospekt Mira, 12, Novokuybyshevsk"
107,3907,,"POLYGON ((49.9351724 53.1155592, 49.9353823 53.1155361, 49.9353987 53.1155896, 49.9351888 53.1156127, 49.9351724 53.1155592))",,,POINT (49.93528555 53.1155744),53.1155744,49.93528555,"ulitsa Mira, 31, Novokuybyshevsk"
108,3908,,"POLYGON ((49.9352975 53.1166773, 49.9353006 53.1167301, 49.9354595 53.1167267, 49.9354503 53.1165706, 49.9353649 53.1165724, 49.935371 53.1166758, 49.9352975 53.1166773))",,,POINT (49.93539498239726 53.11666158444549),53.11666158444549,49.93539498239726,"Sadovaya ulitsa, 8В, Novokuybyshevsk"
109,3910,,"POLYGON ((49.9489534 53.1142961, 49.9490038 53.1143722, 49.949194 53.1143268, 49.9491436 53.1142507, 49.9489534 53.1142961))",,,POINT (49.94907370000001 53.11431145),53.11431145,49.94907370000001,"Sadovo-Dachnaya ulitsa, 41, Novokuybyshevsk"
110,3913,,"POLYGON ((49.9477468 53.1145128, 49.9480146 53.1144501, 49.9481073 53.1145928, 49.9478813 53.1146457, 49.9478067 53.1145308, 49.9477649 53.1145406, 49.9477468 53.1145128))",,,POINT (49.94794200598459 53.114546993567956),53.11454699356796,49.94794200598459,"Sadovo-Dachnaya ulitsa, 45, Novokuybyshevsk"
111,3914,,"POLYGON ((49.9475058 53.1146334, 49.9475692 53.1147401, 49.9476791 53.1147165, 49.9476156 53.1146099, 49.9475058 53.1146334))",,,POINT (49.94759242582817 53.11467498772642),53.11467498772642,49.94759242582817,"Sadovo-Dachnaya ulitsa, 49, Novokuybyshevsk"
112,3917,,"POLYGON ((49.946429 53.1148934, 49.9465835 53.1148618, 49.9466182 53.1149228, 49.9464637 53.1149544, 49.946429 53.1148934))",,,POINT (49.946523600000006 53.1149081),53.1149081,49.946523600000006,"Sadovo-Dachnaya ulitsa, 53, Novokuybyshevsk"
113,3919,,"POLYGON ((49.9463621 53.1153507, 49.9464676 53.1153281, 49.9464855 53.1153582, 49.9465212 53.1153506, 49.9465671 53.1154277, 49.9464883 53.1154446, 49.946463 53.1154021, 49.9464006 53.1154155, 49.9463621 53.1153507))",,,POINT (49.94646645102632 53.11538442744428),53.11538442744428,49.94646645102632,"Sadovo-Dachnaya ulitsa, 55А, Novokuybyshevsk"
114,3921,,"POLYGON ((49.9455726 53.115502, 49.9456027 53.1155479, 49.9457037 53.115524, 49.9456735 53.1154781, 49.9455726 53.115502))",,,POINT (49.945638130909074 53.11551300239004),53.11551300239004,49.945638130909074,"Sadovo-Dachnaya ulitsa, 55В, Novokuybyshevsk"
115,3927,,"POLYGON ((49.9418234 53.1168557, 49.9418709 53.1168548, 49.9418702 53.1168425, 49.9419525 53.1168409, 49.9419565 53.1169139, 49.9418834 53.1169154, 49.9418827 53.1169031, 49.9418261 53.1169042, 49.9418234 53.1168557))",,,POINT (49.94189562091765 53.11687815000656),53.11687815000656,49.94189562091765,"poselok Zheleznodorozhnik ST, 62V, Novokuybyshevsk"
116,3929,,"POLYGON ((49.9483653 53.1153601, 49.9483886 53.1154223, 49.9484608 53.1154126, 49.9484374 53.1153504, 49.9483653 53.1153601))",,,POINT (49.948413028804474 53.115386356672616),53.115386356672616,49.94841302880448,"Sadovo-Dachnaya ulitsa, 47А, Novokuybyshevsk"
117,3930,,"POLYGON ((49.9472163 53.1153295, 49.9472383 53.1153676, 49.9473303 53.1153485, 49.9473083 53.1153104, 49.9472163 53.1153295))",,,POINT (49.9472733 53.11533900000001),53.11533900000001,49.9472733,"Sadovo-Dachnaya ulitsa, 49-А, Novokuybyshevsk"
118,3932,,"POLYGON ((49.9473588 53.1148195, 49.9474079 53.1148958, 49.9474742 53.1148804, 49.9474251 53.1148042, 49.9473588 53.1148195))",,,POINT (49.94741649715261 53.11484998183068),53.11484998183068,49.94741649715261,"Sadovo-Dachnaya ulitsa, 51А, Novokuybyshevsk"
119,3933,,"POLYGON ((49.9425611 53.1164299, 49.9426356 53.1164096, 49.9426683 53.116453, 49.9425937 53.1164732, 49.9425611 53.1164299))",,,POINT (49.94261469087652 53.11644142188353),53.11644142188353,49.94261469087652,"Sadovo-Dachnaya ulitsa, 65, Novokuybyshevsk"
120,3936,,"POLYGON ((49.935818 53.1175473, 49.9358766 53.1176462, 49.9359861 53.1176228, 49.9359413 53.117547, 49.9358812 53.1175598, 49.9358676 53.1175367, 49.935818 53.1175473))",,,POINT (49.935901729519664 53.11759137490059),53.11759137490059,49.935901729519664,"Samarskoye shosse, 2-Б, Novokuybyshevsk"
121,3937,,"POLYGON ((49.9351389 53.1177261, 49.9351878 53.117778, 49.9352793 53.1177469, 49.9352304 53.1176951, 49.9351389 53.1177261))",,,POINT (49.935209092041354 53.11773653215428),53.11773653215428,49.93520909204136,"Samarskoye shosse, 2-Г, Novokuybyshevsk"
122,3938,,"POLYGON ((49.9357632 53.117423, 49.9358445 53.1174087, 49.935872 53.1174651, 49.9357907 53.1174794, 49.9357632 53.117423))",,,POINT (49.9358176 53.11744405),53.11744405,49.9358176,"Molodogvardeyskaya ulitsa, 1, Novokuybyshevsk"
123,3942,,"POLYGON ((49.9375782 53.117968, 49.9376419 53.1180471, 49.9377808 53.1180068, 49.9377171 53.1179276, 49.9375782 53.117968))",,,POINT (49.937679509360116 53.11798736845923),53.11798736845923,49.93767950936012,"poselok Zheleznodorozhnik ST, 65A, Novokuybyshevsk"
124,3943,,"POLYGON ((49.939801 53.1172152, 49.9399101 53.117213, 49.9399152 53.1173055, 49.9398061 53.1173077, 49.939801 53.1172152))",,,POINT (49.9398581 53.117260349999995),53.11726035,49.9398581,"poselok Zheleznodorozhnik ST, 77, Novokuybyshevsk"
125,3945,,"POLYGON ((49.938359 53.1172768, 49.9384856 53.1172719, 49.9384909 53.1173217, 49.9383643 53.1173266, 49.938359 53.1172768))",,,POINT (49.93842495000001 53.11729925000001),53.11729925000001,49.93842495000001,"poselok Zheleznodorozhnik ST, 61B, Novokuybyshevsk"
126,3947,,"POLYGON ((49.9406848 53.1171899, 49.9408231 53.1171888, 49.9408242 53.1172394, 49.940686 53.1172406, 49.9406848 53.1171899))",,,POINT (49.94075450200142 53.11721467220758),53.11721467220758,49.94075450200142,"poselok Zheleznodorozhnik ST, 41, Novokuybyshevsk"
127,3948,,"POLYGON ((49.9413606 53.1167772, 49.9414767 53.1167718, 49.941483 53.1168208, 49.941367 53.1168263, 49.9413606 53.1167772))",,,POINT (49.94142180408799 53.11679902291587),53.11679902291587,49.94142180408799,"poselok Zheleznodorozhnik ST, 62A, Novokuybyshevsk"
128,3949,,"POLYGON ((49.9420061 53.1152241, 49.9420337 53.1152855, 49.9422291 53.1152538, 49.9422014 53.1151924, 49.9420061 53.1152241))",,,POINT (49.942117580108594 53.11523895179025),53.11523895179025,49.942117580108594,"Sadovaya ulitsa, 2А, Novokuybyshevsk"
129,3950,,"POLYGON ((49.9419425 53.1153948, 49.9420517 53.1157224, 49.9421592 53.1157095, 49.9420501 53.1153819, 49.9419425 53.1153948))",,,POINT (49.94205086655215 53.115552125629726),53.115552125629726,49.94205086655215,"Sadovaya ulitsa, 2С2, Novokuybyshevsk"
130,3954,,"POLYGON ((49.9583125 53.1079208, 49.9585375 53.1078865, 49.9585785 53.1079834, 49.9583536 53.1080178, 49.9583125 53.1079208))",,,POINT (49.95844550324185 53.107952126251654),53.10795212625165,49.95844550324185,"Samarskaya ulitsa, 1Б, Novokuybyshevsk"
131,3959,,"POLYGON ((49.9561684 53.1093823, 49.9562606 53.1095011, 49.9563515 53.1094756, 49.9563596 53.1094386, 49.9563295 53.1093998, 49.9563798 53.1093858, 49.9563399 53.1093343, 49.9561684 53.1093823))",,,POINT (49.956282071453465 53.10941478060132),53.10941478060132,49.956282071453465,"Pervomayskaya ulitsa, 3А, Novokuybyshevsk"
132,3970,,"POLYGON ((49.9517144 53.1145858, 49.9517388 53.1146951, 49.9518614 53.1146852, 49.951837 53.1145759, 49.9517144 53.1145858))",,,POINT (49.9517879 53.114635500000006),53.114635500000006,49.9517879,"poselok Zheleznodorozhnik Stantsiya, 20, Novokuybyshevsk"
133,3971,,"POLYGON ((49.9521707 53.1142915, 49.952346 53.114276, 49.9523571 53.1143214, 49.9521818 53.1143369, 49.9521707 53.1142915))",,,POINT (49.952263900000005 53.114306449999994),53.11430645,49.952263900000005,"Sadovo-Dachnaya ulitsa, 37А, Novokuybyshevsk"
134,3975,,"POLYGON ((49.9980732 53.0937183, 49.9981253 53.0938039, 49.998618 53.0936956, 49.9984592 53.0934349, 49.9982726 53.0934759, 49.9983793 53.0936511, 49.9980732 53.0937183))",,,POINT (49.9983777553725 53.0936353506356),53.0936353506356,49.9983777553725,"Zheleznodorozhnaya ulitsa, 78-Д, Novokuybyshevsk"
135,3976,,"POLYGON ((49.9944962 53.0956947, 49.9945411 53.0957441, 49.9946201 53.0957181, 49.9946094 53.0957063, 49.9946597 53.0956898, 49.9946255 53.0956523, 49.9944962 53.0956947))",,,POINT (49.994577487107705 53.095697582616616),53.095697582616616,49.994577487107705,"7-y pereulok, 1, Novokuybyshevsk"
136,3978,,"POLYGON ((49.9926246 53.095263, 49.9927355 53.095199, 49.9928362 53.0952618, 49.9927253 53.0953259, 49.9926246 53.095263))",,,POINT (49.99273039865976 53.095262433340935),53.095262433340935,49.99273039865976,"Zheleznodorozhnaya ulitsa, 40, Novokuybyshevsk"
137,3979,,"POLYGON ((49.9923403 53.095422, 49.9924511 53.0953577, 49.9925169 53.0953986, 49.9924061 53.0954629, 49.9923403 53.095422))",,,POINT (49.992428600000004 53.095410300000005),53.095410300000005,49.9924286,"Zheleznodorozhnaya ulitsa, 38, Novokuybyshevsk"
138,3981,,"POLYGON ((49.9919816 53.0957147, 49.992079 53.0956603, 49.9921255 53.0956903, 49.9920282 53.0957447, 49.9919816 53.0957147))",,,POINT (49.99205356477236 53.09570250314723),53.09570250314723,49.99205356477236,"Zheleznodorozhnaya ulitsa, 36, Novokuybyshevsk"
139,3983,,"POLYGON ((49.9915786 53.0958636, 49.9917191 53.095949, 49.9918373 53.0958787, 49.9917738 53.0958402, 49.9917249 53.0958692, 49.9916479 53.0958225, 49.9915786 53.0958636))",,,POINT (49.99170710518512 53.095882888742075),53.09588288874208,49.99170710518512,"Zheleznodorozhnaya ulitsa, 30А, Novokuybyshevsk"
140,3987,,"POLYGON ((49.9910413 53.0961785, 49.9911215 53.0961309, 49.9912544 53.0962115, 49.9911743 53.0962592, 49.9910413 53.0961785))",,,POINT (49.991147872858 53.096195031711154),53.096195031711154,49.991147872858,"Zheleznodorozhnaya ulitsa, 30, Novokuybyshevsk"
141,3991,,"POLYGON ((49.9900151 53.0967631, 49.9900665 53.0967282, 49.9901852 53.0967913, 49.9901338 53.0968261, 49.9900151 53.0967631))",,,POINT (49.99010013706902 53.096777164522905),53.096777164522905,49.99010013706902,"Zheleznodorozhnaya ulitsa, 22, Novokuybyshevsk"
142,3995,,"POLYGON ((49.9894242 53.0971245, 49.9895238 53.0970671, 49.9896253 53.0971306, 49.9895258 53.097188, 49.9894242 53.0971245))",,,POINT (49.98952476665829 53.09712754949419),53.09712754949419,49.98952476665829,"Zheleznodorozhnaya ulitsa, 16А, Novokuybyshevsk"
143,3999,,"POLYGON ((49.9887604 53.0975554, 49.9888244 53.0975131, 49.9889505 53.0975819, 49.9888553 53.0976448, 49.9887671 53.0975967, 49.9887984 53.0975761, 49.9887604 53.0975554))",,,POINT (49.988848172815466 53.09757927182429),53.09757927182429,49.988848172815466,"Zheleznodorozhnaya ulitsa, 12, Novokuybyshevsk"
144,4004,,"POLYGON ((49.9876871 53.098234, 49.9877772 53.0981763, 49.9878779 53.0982331, 49.9877878 53.0982908, 49.9876871 53.098234))",,,POINT (49.987782499999994 53.09823355),53.09823355,49.9877825,"Zheleznodorozhnaya ulitsa, 8, Novokuybyshevsk"
145,4007,,"POLYGON ((49.9869742 53.0986734, 49.9870923 53.0985955, 49.9871881 53.0986478, 49.98707 53.0987257, 49.9869742 53.0986734))",,,POINT (49.987081149999995 53.09866060000001),53.09866060000001,49.98708115,"Zheleznodorozhnaya ulitsa, 2А, Novokuybyshevsk"
146,4011,,"POLYGON ((49.9887667 53.0981821, 49.9888453 53.0981349, 49.9889454 53.0981951, 49.9888669 53.0982422, 49.9887667 53.0981821))",,,POINT (49.98885606301401 53.09818856518848),53.09818856518848,49.98885606301401,"Zheleznodorozhnaya ulitsa, 14, Novokuybyshevsk"
147,4012,,"POLYGON ((49.9858498 53.0995214, 49.9859511 53.0994423, 49.9860925 53.0995076, 49.9859912 53.0995867, 49.9858498 53.0995214))",,,POINT (49.98597115 53.09951449999999),53.09951449999999,49.98597115,"Zheleznodorozhnaya ulitsa, 2, Novokuybyshevsk"
148,4017,,"POLYGON ((49.9836693 53.1004062, 49.9838519 53.1002816, 49.9839568 53.100337, 49.9837742 53.1004616, 49.9836693 53.1004062))",,,POINT (49.983813049999995 53.1003716),53.1003716,49.98381305,"Zheleznodorozhnaya ulitsa, 45, Novokuybyshevsk"
149,4031,,"POLYGON ((49.9786259 53.1034078, 49.9787161 53.1033525, 49.9787991 53.1034014, 49.9787089 53.1034566, 49.9786259 53.1034078))",,,POINT (49.97871250115569 53.10340456662396),53.10340456662396,49.97871250115569,"Zheleznodorozhnaya ulitsa, 5-А, Novokuybyshevsk"
150,4033,,"POLYGON ((49.9796083 53.1033592, 49.9796941 53.1033091, 49.9798147 53.1033836, 49.9797553 53.1034183, 49.9797365 53.1034067, 49.9797102 53.1034221, 49.9796083 53.1033592))",,,POINT (49.97971044394667 53.103368943633306),53.103368943633306,49.97971044394667,"Zheleznodorozhnaya ulitsa, 5, Novokuybyshevsk"
151,4034,,"POLYGON ((49.9797292 53.1033018, 49.97982 53.1032444, 49.9799014 53.1032909, 49.9798473 53.103325, 49.9798751 53.1033408, 49.9798382 53.1033641, 49.9797292 53.1033018))",,,POINT (49.97981861657924 53.10330218822292),53.10330218822292,49.97981861657924,"Zheleznodorozhnaya ulitsa, 7, Novokuybyshevsk"
152,4035,,"POLYGON ((49.9799179 53.1031651, 49.9800313 53.1030929, 49.9801266 53.1031469, 49.9800132 53.1032191, 49.9799179 53.1031651))",,,POINT (49.98002225 53.103156),53.103156,49.98002225,"Zheleznodorozhnaya ulitsa, 9, Novokuybyshevsk"
153,4037,,"POLYGON ((49.9803391 53.1030907, 49.980423 53.1030316, 49.9804888 53.1030653, 49.980405 53.1031244, 49.9803391 53.1030907))",,,POINT (49.98041396609949 53.10307800292411),53.10307800292411,49.98041396609949,"Zheleznodorozhnaya ulitsa, 11, Novokuybyshevsk"
154,4039,,"POLYGON ((49.9810416 53.102583, 49.9811429 53.1025052, 49.9812459 53.1025535, 49.9811445 53.1026313, 49.9810416 53.102583))",,,POINT (49.98114373330285 53.102568247597816),53.102568247597816,49.98114373330285,"Zheleznodorozhnaya ulitsa, 15, Novokuybyshevsk"
155,4040,,"POLYGON ((49.9804579 53.1024159, 49.9805091 53.1023633, 49.9806126 53.1023997, 49.9805614 53.1024523, 49.9804579 53.1024159))",,,POINT (49.98053525 53.102407799999995),53.1024078,49.98053525,"Zheleznodorozhnaya ulitsa, 13, Novokuybyshevsk"
156,4046,,"POLYGON ((49.9812165 53.1016904, 49.9813826 53.1016032, 49.9815199 53.1016975, 49.9813539 53.1017847, 49.9812165 53.1016904))",,,POINT (49.98136821672812 53.10169394961141),53.10169394961141,49.98136821672812,"Zheleznodorozhnaya ulitsa, 27, Novokuybyshevsk"
157,4047,,"POLYGON ((49.9816326 53.1018086, 49.9817378 53.1017425, 49.9818169 53.101788, 49.9817117 53.101854, 49.9816326 53.1018086))",,,POINT (49.98172475400616 53.10179826621887),53.10179826621887,49.98172475400616,"Zheleznodorozhnaya ulitsa, 23Б, Novokuybyshevsk"
158,4049,,"POLYGON ((49.9814699 53.1015157, 49.9815713 53.1014574, 49.9816582 53.101512, 49.9816283 53.1015291, 49.9816613 53.1015498, 49.9815897 53.1015909, 49.9814699 53.1015157))",,,POINT (49.98157353302019 53.10152357150189),53.10152357150189,49.98157353302019,"Zheleznodorozhnaya ulitsa, 31, Novokuybyshevsk"
159,4052,,"POLYGON ((49.9805485 53.1034806, 49.9806768 53.1034053, 49.9807837 53.103471, 49.9806891 53.1035265, 49.980622 53.1034853, 49.9805884 53.1035051, 49.9805485 53.1034806))",,,POINT (49.980671497983465 53.10346790424875),53.10346790424875,49.980671497983465,"Zheleznodorozhnaya ulitsa, 7А, Novokuybyshevsk"
160,4060,,"POLYGON ((49.9836015 53.099283, 49.9837331 53.099201, 49.9838164 53.0992491, 49.9836848 53.0993312, 49.9836015 53.099283))",,,POINT (49.9837089434329 53.09926608436928),53.09926608436928,49.9837089434329,"1-y pereulok, 7, Novokuybyshevsk"
161,4066,,"POLYGON ((49.9842457 53.098562, 49.9843439 53.0985026, 49.9844853 53.0985869, 49.9843871 53.0986463, 49.9842457 53.098562))",,,POINT (49.98436549999999 53.09857445),53.09857445,49.98436549999999,"2-y pereulok, 7, Novokuybyshevsk"
162,4070,,"POLYGON ((49.9845153 53.0978713, 49.9847075 53.0980182, 49.9845442 53.0980952, 49.9844544 53.0980265, 49.9845212 53.0979951, 49.9844922 53.0979729, 49.984531 53.0979546, 49.9844576 53.0978985, 49.9845153 53.0978713))",,,POINT (49.98456631871422 53.09799313217928),53.09799313217928,49.98456631871422,"2-y pereulok, 5В, Novokuybyshevsk"
163,4072,,"POLYGON ((49.9847602 53.0985467, 49.9848403 53.0984992, 49.9848842 53.0985259, 49.9848637 53.098538, 49.98491 53.0985662, 49.9848504 53.0986016, 49.9847602 53.0985467))",,,POINT (49.98483752866532 53.098551046621765),53.098551046621765,49.98483752866532,"Zheleznodorozhnaya ulitsa, 59А, Novokuybyshevsk"
164,4073,,"POLYGON ((49.9852767 53.0984209, 49.9854217 53.0983348, 49.9855471 53.0984111, 49.9854853 53.0984477, 49.9855477 53.0984857, 49.9854644 53.098535, 49.9852767 53.0984209))",,,POINT (49.985425877387364 53.09843271225395),53.09843271225395,49.98542587738736,"Zheleznodorozhnaya ulitsa, 63, Novokuybyshevsk"
165,4079,,"POLYGON ((49.9855359 53.097669, 49.9856147 53.0976229, 49.9857667 53.0977166, 49.9856393 53.0977911, 49.9855307 53.0977241, 49.9855792 53.0976958, 49.9855359 53.097669))",,,POINT (49.9856384496566 53.097708268909756),53.09770826890976,49.9856384496566,"Zheleznodorozhnaya ulitsa, 67А, Novokuybyshevsk"
166,4083,,"POLYGON ((49.9861824 53.0979009, 49.9862834 53.0978402, 49.9863602 53.0978863, 49.9862592 53.097947, 49.9861824 53.0979009))",,,POINT (49.986271300000006 53.0978936),53.0978936,49.986271300000006,"Zheleznodorozhnaya ulitsa, 67, Novokuybyshevsk"
167,4087,,"POLYGON ((49.9871337 53.0975502, 49.9872741 53.0976337, 49.9872062 53.0976748, 49.9870659 53.0975913, 49.9871337 53.0975502))",,,POINT (49.98716998557375 53.09761250385043),53.09761250385043,49.98716998557375,"3-y pereulok, 6, Novokuybyshevsk"
168,4089,,"POLYGON ((49.9861669 53.0974394, 49.986394 53.097291, 49.9864991 53.0973491, 49.9862719 53.0974974, 49.9861669 53.0974394))",,,POINT (49.986332998275635 53.097394208074576),53.097394208074576,49.98633299827564,"3-y pereulok, 8, Novokuybyshevsk"
169,4092,,"POLYGON ((49.986844 53.0968654, 49.986903 53.0968313, 49.9868792 53.0968164, 49.9869551 53.0967725, 49.9870919 53.0968579, 49.9869569 53.0969359, 49.986844 53.0968654))",,,POINT (49.98696381546054 53.09685530231636),53.09685530231636,49.98696381546054,"3-y pereulok, 9, Novokuybyshevsk"
170,4096,,"POLYGON ((49.9876837 53.0968768, 49.9877655 53.0968332, 49.9878098 53.0968632, 49.9877938 53.0968718, 49.9878297 53.0968961, 49.987764 53.0969311, 49.9876837 53.0968768))",,,POINT (49.98775943170511 53.09688239818848),53.09688239818848,49.98775943170511,"4-y pereulok, 6, Novokuybyshevsk"
171,4099,,"POLYGON ((49.9872269 53.0973587, 49.9872731 53.0973869, 49.9872048 53.0974273, 49.9872734 53.0974692, 49.9874363 53.0973731, 49.9873743 53.0973352, 49.987346 53.0973519, 49.9872932 53.0973196, 49.9872269 53.0973587))",,,POINT (49.98731190810223 53.097390740924),53.097390740924,49.98731190810223,"3-y pereulok, 5, Novokuybyshevsk"
172,4107,,"POLYGON ((49.9875641 53.0964644, 49.9876383 53.096418, 49.9877311 53.0964714, 49.9876569 53.0965179, 49.9875641 53.0964644))",,,POINT (49.987647603127506 53.096467933464425),53.096467933464425,49.98764760312751,"4-y pereulok, 5, Novokuybyshevsk"
173,4110,,"POLYGON ((49.9870681 53.0959874, 49.9871521 53.0959244, 49.9873857 53.0960366, 49.9873017 53.0960996, 49.9870681 53.0959874))",,,POINT (49.987226899999996 53.096011999999995),53.096012,49.9872269,"4-y pereulok, 7, Novokuybyshevsk"
174,4111,,"POLYGON ((49.9868681 53.0959071, 49.9866163 53.0960987, 49.9870221 53.096291, 49.9871107 53.0962237, 49.9867902 53.0960717, 49.9869534 53.0959475, 49.9868681 53.0959071))",,,POINT (49.98685388592037 53.09611320013149),53.09611320013149,49.98685388592037,"4-y pereulok, 9, Novokuybyshevsk"
175,4115,,"POLYGON ((49.9888592 53.0962019, 49.9889708 53.0962704, 49.9890311 53.0962349, 49.9889693 53.0961971, 49.9889901 53.0961848, 49.9889403 53.0961543, 49.9888592 53.0962019))",,,POINT (49.98894643699733 53.096212735521306),53.096212735521306,49.98894643699733,"5-y pereulok, 3, Novokuybyshevsk"
176,4116,,"POLYGON ((49.9890266 53.0961262, 49.9891538 53.0960499, 49.9892566 53.0961115, 49.9891538 53.0961733, 49.9891152 53.0961501, 49.9890908 53.0961648, 49.9890266 53.0961262))",,,POINT (49.98914309001462 53.09611501256452),53.09611501256452,49.98914309001462,"5-y pereulok, 9, Novokuybyshevsk"
177,4118,,"POLYGON ((49.9889975 53.0957991, 49.989048 53.0957668, 49.9890949 53.0957932, 49.9891477 53.0957595, 49.9892266 53.095804, 49.9891234 53.0958701, 49.9889975 53.0957991))",,,POINT (49.98911540674819 53.09581059675609),53.09581059675609,49.98911540674819,"5-y pereulok, 11, Novokuybyshevsk"
178,4119,,"POLYGON ((49.9887059 53.095682, 49.9888689 53.0955798, 49.9889762 53.0956415, 49.9889273 53.0956721, 49.9889428 53.095681, 49.9888285 53.0957526, 49.9887059 53.095682))",,,POINT (49.9888444071713 53.09566638961254),53.09566638961254,49.9888444071713,"5-y pereulok, 13, Novokuybyshevsk"
179,4120,,"POLYGON ((49.9883915 53.0956021, 49.9884708 53.0955197, 49.9886131 53.0955691, 49.9885338 53.0956515, 49.9883915 53.0956021))",,,POINT (49.98850230000001 53.09558560000001),53.09558560000001,49.98850230000001,"5-y pereulok, 13А, Novokuybyshevsk"
180,4122,,"POLYGON ((49.9891916 53.0962928, 49.9892589 53.0962512, 49.9892833 53.0962655, 49.9893288 53.0962375, 49.9893957 53.0962766, 49.989283 53.0963461, 49.9891916 53.0962928))",,,POINT (49.989293625679665 53.09628953362389),53.09628953362389,49.98929362567967,"Zheleznodorozhnaya ulitsa, 83Б, Novokuybyshevsk"
181,4123,,"POLYGON ((49.9896304 53.0965214, 49.9897069 53.0964708, 49.9898237 53.0965344, 49.9897472 53.096585, 49.9896304 53.0965214))",,,POINT (49.98972705 53.096527900000005),53.096527900000005,49.98972705,"Zheleznodorozhnaya ulitsa, 83, Novokuybyshevsk"
182,4125,,"POLYGON ((49.9898994 53.0961671, 49.9899591 53.0961322, 49.990102 53.0962203, 49.9900422 53.0962552, 49.9898994 53.0961671))",,,POINT (49.99000068692777 53.09619370532029),53.09619370532029,49.99000068692777,"Zheleznodorozhnaya ulitsa, 85А, Novokuybyshevsk"
183,4129,,"POLYGON ((49.9892025 53.0955825, 49.9893047 53.0955167, 49.9894338 53.095589, 49.9893316 53.0956548, 49.9892025 53.0955825))",,,POINT (49.98931815 53.095585750000005),53.095585750000005,49.98931815,"5-y pereulok, 4, Novokuybyshevsk"
184,4132,,"POLYGON ((49.9894467 53.0950543, 49.9895508 53.0951278, 49.9896791 53.0950624, 49.989575 53.0949888, 49.9894467 53.0950543))",,,POINT (49.98956290288418 53.095058316767194),53.0950583167672,49.98956290288418,"5-y pereulok, 10, Novokuybyshevsk"
185,4136,,"POLYGON ((49.9901577 53.0954433, 49.9902588 53.0955177, 49.9901495 53.0955713, 49.9900484 53.0954969, 49.9901577 53.0954433))",,,POINT (49.9901536 53.0955073),53.0955073,49.9901536,"Zheleznodorozhnaya ulitsa, 89А, Novokuybyshevsk"
186,4139,,"POLYGON ((49.9912648 53.0955778, 49.9913917 53.0955052, 49.9914916 53.095568, 49.9913647 53.0956407, 49.9912648 53.0955778))",,,POINT (49.991378196650125 53.095572933478074),53.09557293347808,49.991378196650125,"Zheleznodorozhnaya ulitsa, 93, Novokuybyshevsk"
187,4143,,"POLYGON ((49.9904792 53.0947, 49.990592 53.0946286, 49.9906862 53.0946823, 49.9905733 53.0947537, 49.9904792 53.0947))",,,POINT (49.99058268354912 53.09469114855643),53.09469114855643,49.99058268354912,"6-y pereulok, 10, Novokuybyshevsk"
188,4147,,"POLYGON ((49.9908616 53.0941639, 49.9909483 53.094102, 49.9910246 53.0941406, 49.9909748 53.0941761, 49.9909998 53.0941887, 49.9909628 53.0942151, 49.9908616 53.0941639))",,,POINT (49.99094623804109 53.09415754692623),53.09415754692623,49.99094623804109,"6-y pereulok, 7, Novokuybyshevsk"
189,4150,,"POLYGON ((49.9920863 53.0950607, 49.992181 53.0950089, 49.9923021 53.0950888, 49.9922074 53.0951405, 49.9920863 53.0950607))",,,POINT (49.99219419656686 53.09507471621963),53.09507471621963,49.99219419656686,"Zheleznodorozhnaya ulitsa, 97, Novokuybyshevsk"
190,4153,,"POLYGON ((49.9911359 53.0944226, 49.9912581 53.094496, 49.9913254 53.0944555, 49.9912033 53.0943821, 49.9911359 53.0944226))",,,POINT (49.99123066514761 53.094439046842695),53.094439046842695,49.99123066514761,"6-y pereulok, 5, Novokuybyshevsk"
191,4160,,"POLYGON ((49.9847721 53.1014903, 49.9849763 53.1013687, 49.9850248 53.101398, 49.9848206 53.1015197, 49.9847721 53.1014903))",,,POINT (49.98489842243167 53.10144419340281),53.10144419340281,49.98489842243167,"Zheleznodorozhnaya ulitsa, 17А, Novokuybyshevsk"
192,4161,,"POLYGON ((49.9391426 53.1185811, 49.9392781 53.1185312, 49.9393653 53.1186165, 49.9392298 53.1186664, 49.9391426 53.1185811))",,,POINT (49.93925395 53.11859880000001),53.11859880000001,49.93925395,"Samarskoye shosse, 1, Novokuybyshevsk"
193,4163,,"POLYGON ((49.9397643 53.1196592, 49.939802 53.1197231, 49.9398868 53.1197051, 49.9398491 53.1196412, 49.9397643 53.1196592))",,,POINT (49.939825549999995 53.11968215),53.11968215,49.93982555,"Samarskoye shosse, 1А, Novokuybyshevsk"
194,4164,,"POLYGON ((49.9402077 53.1196997, 49.9402375 53.1197692, 49.9404708 53.1197331, 49.940441 53.1196637, 49.9402077 53.1196997))",,,POINT (49.94033922417525 53.119716430054936),53.119716430054936,49.94033922417525,"Samarskoye shosse, 1-А, Novokuybyshevsk"
195,4165,,"POLYGON ((49.9404711 53.1199078, 49.9405018 53.1199028, 49.9405296 53.1198983, 49.9405434 53.1199291, 49.9404849 53.1199386, 49.9404711 53.1199078))",,,POINT (49.94050724858944 53.11991844659632),53.11991844659632,49.94050724858944,"Samarskoye shosse, 3, Novokuybyshevsk"
196,4166,,"POLYGON ((49.9401715 53.1204632, 49.9402694 53.120507, 49.9401575 53.1205971, 49.9400595 53.1205532, 49.9401715 53.1204632))",,,POINT (49.94016446449043 53.12053013748074),53.12053013748074,49.94016446449043,"Samarskoye shosse, 4, Novokuybyshevsk"
197,4170,,"POLYGON ((49.9381883 53.1206121, 49.9382316 53.1206908, 49.938376 53.1206621, 49.9383327 53.1205835, 49.9381883 53.1206121))",,,POINT (49.93828213744705 53.12063712998944),53.12063712998944,49.93828213744705,"Saratovskaya ulitsa, 7, Novokuybyshevsk"
198,4171,,"POLYGON ((49.9375992 53.1198105, 49.9376863 53.1198847, 49.937795 53.1198387, 49.937743 53.1197945, 49.9377226 53.1198031, 49.9376874 53.1197731, 49.9375992 53.1198105))",,,POINT (49.93769558142153 53.11982794421531),53.11982794421531,49.93769558142153,"Ul'yanovskaya ulitsa, 4, Novokuybyshevsk"
199,4172,,"POLYGON ((49.9377243 53.1197142, 49.9378085 53.1196592, 49.9379163 53.1197186, 49.9378322 53.1197736, 49.9377243 53.1197142))",,,POINT (49.937820316587164 53.11971639961624),53.11971639961624,49.93782031658717,"Ul'yanovskaya ulitsa, 2, Novokuybyshevsk"
200,4173,,"POLYGON ((49.937059 53.1195892, 49.9371456 53.1195525, 49.9372775 53.1196647, 49.9371909 53.1197013, 49.937059 53.1195892))",,,POINT (49.937168244329584 53.119626914707325),53.119626914707325,49.937168244329584,"Ul'yanovskaya ulitsa, 8А, Novokuybyshevsk"
201,4174,,"POLYGON ((49.9367535 53.119744, 49.9368703 53.1196818, 49.9370037 53.1197721, 49.9368869 53.1198343, 49.9367535 53.119744))",,,POINT (49.9368786 53.11975805),53.11975805,49.9368786,"poselok 38 Massiv, 8, Novokuybyshevsk"
202,4175,,"POLYGON ((49.9367829 53.1193, 49.9368801 53.1192855, 49.9369174 53.1193752, 49.9368202 53.1193898, 49.9367829 53.1193))",,,POINT (49.9368501427547 53.119337629282434),53.119337629282434,49.9368501427547,"Ul'yanovskaya ulitsa, 1Н, Novokuybyshevsk"
203,4176,,"POLYGON ((49.9356314 53.1197025, 49.935726 53.1196618, 49.9358284 53.1197474, 49.9357338 53.1197882, 49.9356314 53.1197025))",,,POINT (49.93572990104315 53.119724983571096),53.119724983571096,49.93572990104315,"poselok 38 Massiv, 1Ж, Novokuybyshevsk"
204,4179,,"POLYGON ((49.9350296 53.1199091, 49.9351243 53.1199946, 49.9352419 53.1199478, 49.9351473 53.1198622, 49.9350296 53.1199091))",,,POINT (49.93513576998464 53.11992841423335),53.11992841423335,49.93513576998464,"poselok 38 Massiv, 1/3, Novokuybyshevsk"
205,4180,,"POLYGON ((49.9347444 53.1200352, 49.9348401 53.1201431, 49.9349906 53.120095, 49.9348949 53.1199871, 49.9347444 53.1200352))",,,POINT (49.9348675 53.120065100000005),53.120065100000005,49.9348675,"poselok 38 Massiv, 1/2, Novokuybyshevsk"
206,4181,,"POLYGON ((49.9343919 53.1201676, 49.9345311 53.1201258, 49.9346043 53.1202137, 49.934527 53.1202369, 49.9345083 53.1202145, 49.9344464 53.120233, 49.9343919 53.1201676))",,,POINT (49.93449956799019 53.12018496493698),53.12018496493698,49.93449956799019,"poselok 38 Massiv, 1/1, Novokuybyshevsk"
207,4182,,"POLYGON ((49.9338172 53.1202978, 49.9339686 53.120254, 49.934049 53.120354, 49.9338975 53.1203978, 49.9338172 53.1202978))",,,POINT (49.93393308154927 53.1203259036083),53.1203259036083,49.93393308154927,"poselok 38 Massiv, 3А, Novokuybyshevsk"
208,4183,,"POLYGON ((49.933304 53.1204606, 49.9333904 53.1205693, 49.9334887 53.1205412, 49.9335122 53.1205708, 49.9336037 53.1205446, 49.9335384 53.1204625, 49.9334482 53.1204883, 49.9334036 53.1204321, 49.933304 53.1204606))",,,POINT (49.933449492034036 53.120507208654516),53.12050720865452,49.93344949203404,"poselok 38 Massiv, 5А, Novokuybyshevsk"
209,4184,,"POLYGON ((49.9329958 53.1206443, 49.9331257 53.1205934, 49.9332809 53.1207361, 49.9332043 53.1207661, 49.9331586 53.1207241, 49.9331053 53.120745, 49.9329958 53.1206443))",,,POINT (49.93313608311954 53.12068121981578),53.12068121981578,49.93313608311954,"poselok 38 Massiv, 3Б, Novokuybyshevsk"
210,4186,,"POLYGON ((49.9326762 53.1203706, 49.9327614 53.1203479, 49.9328135 53.1204184, 49.9327283 53.120441, 49.9326762 53.1203706))",,,POINT (49.93274485527288 53.12039446850238),53.12039446850238,49.93274485527288,"poselok 38 Massiv, 3/В, Novokuybyshevsk"
211,4187,,"POLYGON ((49.9330611 53.1202295, 49.9331947 53.1202013, 49.9332398 53.1202784, 49.9331597 53.1202953, 49.9331479 53.1202752, 49.9330945 53.1202865, 49.9330611 53.1202295))",,,POINT (49.93315318492707 53.12024963931503),53.12024963931503,49.93315318492707,"poselok 38 Massiv, 17, Novokuybyshevsk"
212,4189,,"POLYGON ((49.9320173 53.1206206, 49.9321331 53.1205765, 49.9321895 53.12063, 49.9320737 53.120674, 49.9320173 53.1206206))",,,POINT (49.93210340982703 53.12062526720311),53.12062526720311,49.93210340982703,"poselok 38 Massiv, 13, Novokuybyshevsk"
213,4191,,"POLYGON ((49.9321859 53.1209775, 49.9322795 53.1209309, 49.9323794 53.1210031, 49.9323068 53.1210392, 49.9322487 53.1209972, 49.9322276 53.1210077, 49.9321859 53.1209775))",,,POINT (49.93228495212043 53.12098530454857),53.12098530454857,49.93228495212043,"Ul'yanovskaya ulitsa, 5-Б, Novokuybyshevsk"
214,4192,,"POLYGON ((49.9319677 53.1210264, 49.9320855 53.1211089, 49.932175 53.1210629, 49.9320573 53.1209804, 49.9319677 53.1210264))",,,POINT (49.93207136599678 53.1210446469475),53.1210446469475,49.93207136599678,"Ul'yanovskaya ulitsa, 7, Novokuybyshevsk"
215,4193,,"POLYGON ((49.9318038 53.1211979, 49.9318745 53.1211655, 49.9319641 53.1212358, 49.9318934 53.1212682, 49.9318038 53.1211979))",,,POINT (49.93188395000001 53.12121685),53.12121685,49.93188395000001,"Ul'yanovskaya ulitsa, 9, Novokuybyshevsk"
216,4194,,"POLYGON ((49.9315069 53.1213475, 49.9316039 53.1212993, 49.9317034 53.1213715, 49.9316065 53.1214196, 49.9315069 53.1213475))",,,POINT (49.931605166261384 53.12135946458154),53.12135946458154,49.93160516626138,"Ul'yanovskaya ulitsa, 11, Novokuybyshevsk"
217,4195,,"POLYGON ((49.9312203 53.1214372, 49.9313444 53.1215302, 49.9314475 53.1214807, 49.9313234 53.1213877, 49.9312203 53.1214372))",,,POINT (49.931333900000006 53.121458950000005),53.121458950000005,49.931333900000006,"Ul'yanovskaya ulitsa, 15А, Novokuybyshevsk"
218,4196,,"POLYGON ((49.9310822 53.121579, 49.9312142 53.1215176, 49.9312607 53.1215535, 49.9312393 53.1215635, 49.9312704 53.1215875, 49.9311598 53.121639, 49.9310822 53.121579))",,,POINT (49.93118153753596 53.12157882897751),53.12157882897751,49.93118153753596,"Ul'yanovskaya ulitsa, 13, Novokuybyshevsk"
219,4197,,"POLYGON ((49.9309202 53.1216507, 49.9310396 53.1215885, 49.9311341 53.1216537, 49.9309801 53.1217341, 49.9309197 53.1216924, 49.9309544 53.1216743, 49.9309202 53.1216507))",,,POINT (49.93101777589129 53.121660371325355),53.12166037132536,49.93101777589129,"Ul'yanovskaya ulitsa, 15, Novokuybyshevsk"
220,4198,,"POLYGON ((49.9305814 53.1218066, 49.9306709 53.1218807, 49.9308298 53.1218116, 49.9307754 53.1217666, 49.9307378 53.121783, 49.9307027 53.1217539, 49.9305814 53.1218066))",,,POINT (49.930702168936286 53.1218141237243),53.1218141237243,49.930702168936286,"Ul'yanovskaya ulitsa, 17, Novokuybyshevsk"
221,4199,,"POLYGON ((49.9303897 53.121932, 49.9304943 53.1220156, 49.9306364 53.1219516, 49.9305318 53.121868, 49.9303897 53.121932))",,,POINT (49.930513049999995 53.1219418),53.1219418,49.93051305,"Ul'yanovskaya ulitsa, 19, Novokuybyshevsk"
222,4200,,"POLYGON ((49.930193 53.122029, 49.9302962 53.1219926, 49.9303617 53.1220595, 49.9302584 53.1220959, 49.930193 53.122029))",,,POINT (49.93027733229914 53.122044252826264),53.12204425282626,49.93027733229914,"Ul'yanovskaya ulitsa, 21, Novokuybyshevsk"
223,4202,,"POLYGON ((49.9298452 53.1221319, 49.9299743 53.1220897, 49.9300473 53.1221702, 49.9299181 53.1222124, 49.9299044 53.1221973, 49.9298759 53.1222066, 49.9298413 53.1221684, 49.9298699 53.1221591, 49.9298452 53.1221319))",,,POINT (49.92993928167641 53.12215406819515),53.12215406819515,49.92993928167641,"Ul'yanovskaya ulitsa, 23/2, Novokuybyshevsk"
224,4204,,"POLYGON ((49.9296789 53.1211689, 49.9297158 53.1212169, 49.9297558 53.1212058, 49.9297851 53.1212439, 49.929933 53.121203, 49.9298668 53.1211169, 49.9296789 53.1211689))",,,POINT (49.92981172224107 53.121181316711926),53.121181316711926,49.92981172224107,"Ul'yanovskaya ulitsa, 19/A, Novokuybyshevsk"
225,4206,,"POLYGON ((49.9300981 53.1209763, 49.9302396 53.1209435, 49.9302641 53.1209818, 49.9301227 53.1210145, 49.9300981 53.1209763))",,,POINT (49.9301811435506 53.12097901700519),53.12097901700519,49.9301811435506,"poselok 38 Massiv, 9, Novokuybyshevsk"
226,4207,,"POLYGON ((49.9312348 53.1206694, 49.9313244 53.1206489, 49.9313546 53.1206966, 49.931265 53.120717, 49.9312348 53.1206694))",,,POINT (49.93129471213437 53.1206829694217),53.1206829694217,49.93129471213437,"poselok 38 Massiv, 12, Novokuybyshevsk"
227,4209,,"POLYGON ((49.9289513 53.1224041, 49.9290276 53.1224989, 49.929204 53.1224477, 49.9291277 53.1223529, 49.9289513 53.1224041))",,,POINT (49.92907765 53.1224259),53.1224259,49.92907765,"Ul'yanovskaya ulitsa, 25, Novokuybyshevsk"
228,4211,,"POLYGON ((49.9287369 53.1224677, 49.9288185 53.1225736, 49.9289414 53.1225395, 49.9289158 53.1225064, 49.9289753 53.1224899, 49.9289192 53.1224171, 49.9287369 53.1224677))",,,POINT (49.928858696812696 53.122493156082264),53.12249315608226,49.928858696812696,"Ul'yanovskaya ulitsa, 27А, Novokuybyshevsk"
229,4212,,"POLYGON ((49.9285799 53.1225157, 49.928657 53.1226181, 49.9287496 53.122593, 49.9286725 53.1224906, 49.9285799 53.1225157))",,,POINT (49.92866475 53.122554349999994),53.12255435,49.92866475,"Ul'yanovskaya ulitsa, 29, Novokuybyshevsk"
230,4213,,"POLYGON ((49.9281005 53.1226049, 49.9281873 53.1227354, 49.9283517 53.122696, 49.928265 53.1225655, 49.9281005 53.1226049))",,,POINT (49.92822611903767 53.122650444815534),53.122650444815534,49.92822611903767,"Ul'yanovskaya ulitsa, 33, Novokuybyshevsk"
231,4214,,"POLYGON ((49.927819 53.1227579, 49.9279697 53.1227114, 49.9280488 53.1228039, 49.927898 53.1228503, 49.927819 53.1227579))",,,POINT (49.92793388957005 53.12278087125134),53.12278087125134,49.92793388957005,"Ul'yanovskaya ulitsa, 33А, Novokuybyshevsk"
232,4215,,"POLYGON ((49.9275206 53.1228568, 49.9276963 53.1228036, 49.9277692 53.1228903, 49.9275936 53.1229435, 49.9275206 53.1228568))",,,POINT (49.92764491816697 53.12287354795626),53.12287354795626,49.92764491816697,"Ul'yanovskaya ulitsa, 35, Novokuybyshevsk"
233,4217,,"POLYGON ((49.9270398 53.1230631, 49.9271334 53.1230355, 49.9270907 53.1229834, 49.9272565 53.1229345, 49.9273365 53.1230322, 49.9271632 53.1230833, 49.9271749 53.1230975, 49.9270887 53.1231229, 49.9270398 53.1230631))",,,POINT (49.927187342577504 53.12302582446562),53.12302582446562,49.927187342577504,"Ul'yanovskaya ulitsa, 39А, Novokuybyshevsk"
234,4218,,"POLYGON ((49.926555 53.1231259, 49.9266605 53.1230947, 49.9267547 53.1232094, 49.9266493 53.1232406, 49.926555 53.1231259))",,,POINT (49.92665486718499 53.12316764324794),53.12316764324794,49.92665486718499,"Ul'yanovskaya ulitsa, 41, Novokuybyshevsk"
235,4219,,"POLYGON ((49.9275452 53.1220633, 49.9275911 53.1221499, 49.9276869 53.1221316, 49.927641 53.122045, 49.9275452 53.1220633))",,,POINT (49.92761605 53.122097449999984),53.122097449999984,49.92761605,"Vol'skaya ulitsa, 4, Novokuybyshevsk"
236,4220,,"POLYGON ((49.9267757 53.121761, 49.9268641 53.1217397, 49.9269038 53.1217994, 49.9268155 53.1218206, 49.9267757 53.121761))",,,POINT (49.92683977769448 53.12178016497633),53.12178016497633,49.92683977769448,"Vol'skaya ulitsa, 8В, Novokuybyshevsk"
237,4222,,"POLYGON ((49.9363157 53.1199007, 49.9363799 53.1199619, 49.9364183 53.1199474, 49.9364339 53.1199623, 49.9364999 53.1199374, 49.9364203 53.1198612, 49.9363157 53.1199007))",,,POINT (49.936407913375554 53.11991566771013),53.11991566771013,49.936407913375554,"poselok 38 Massiv, 10, Novokuybyshevsk"
238,4224,,"POLYGON ((49.9357737 53.1200252, 49.9358613 53.1199897, 49.9359348 53.120055, 49.9358472 53.1200905, 49.9357737 53.1200252))",,,POINT (49.935854250000006 53.12004010000001),53.12004010000001,49.935854250000006,"poselok 38 Massiv, 14, Novokuybyshevsk"
239,4225,,"POLYGON ((49.9361365 53.1202516, 49.9362617 53.1202064, 49.9363625 53.120307, 49.9362373 53.1203522, 49.9361365 53.1202516))",,,POINT (49.9362495 53.1202793),53.1202793,49.9362495,"poselok 38 Massiv, 14А, Novokuybyshevsk"
240,4227,,"POLYGON ((49.93491 53.120378, 49.9350634 53.1203151, 49.9352985 53.1205216, 49.9351925 53.1205651, 49.9350976 53.1204817, 49.9350502 53.1205012, 49.93491 53.120378))",,,POINT (49.93510181083644 53.12043794125712),53.12043794125712,49.93510181083644,"Ul'yanovskaya ulitsa, 20/А, Novokuybyshevsk"
241,4228,,"POLYGON ((49.9346582 53.1205268, 49.9347536 53.1204866, 49.9348574 53.1205754, 49.934762 53.1206156, 49.9346582 53.1205268))",,,POINT (49.93475779999999 53.12055109999999),53.12055109999999,49.93475779999999,"poselok 38 Massiv, 20, Novokuybyshevsk"
242,4229,,"POLYGON ((49.9343466 53.1206493, 49.934438 53.1207387, 49.9345628 53.1206928, 49.9345161 53.1206471, 49.9344566 53.120669, 49.9344119 53.1206252, 49.9343466 53.1206493))",,,POINT (49.934451860122905 53.12068162506024),53.12068162506024,49.934451860122905,"poselok 38 Massiv, 24, Novokuybyshevsk"
243,4230,,"POLYGON ((49.9340585 53.1209485, 49.9341353 53.1209164, 49.934235 53.1210026, 49.9341582 53.1210346, 49.9340585 53.1209485))",,,POINT (49.93414674656716 53.120975515614454),53.12097551561445,49.93414674656716,"poselok 38 Massiv, 26, Novokuybyshevsk"
244,4231,,"POLYGON ((49.9337107 53.1208791, 49.933808 53.1208385, 49.9338978 53.1209161, 49.9338005 53.1209567, 49.9337107 53.1208791))",,,POINT (49.933804249999994 53.12089759999999),53.12089759999999,49.93380425,"poselok 38 Massiv, 30, Novokuybyshevsk"
245,4232,,"POLYGON ((49.9334427 53.1209757, 49.9336221 53.1209069, 49.9336951 53.1209756, 49.9335157 53.1210443, 49.9334427 53.1209757))",,,POINT (49.93356891291032 53.12097561666155),53.12097561666155,49.93356891291032,"poselok 38 Massiv, 30Б, Novokuybyshevsk"
246,4234,,"POLYGON ((49.9337821 53.1218555, 49.9338432 53.1219351, 49.9339436 53.1219074, 49.9339307 53.1218906, 49.9339619 53.121882, 49.9339136 53.1218191, 49.9337821 53.1218555))",,,POINT (49.93387452736086 53.12187619544997),53.12187619544997,49.93387452736086,"Saratovskaya ulitsa, 27, Novokuybyshevsk"
247,4237,,"POLYGON ((49.9355518 53.121352, 49.9355942 53.1213999, 49.935649 53.1213824, 49.9356656 53.1214011, 49.9357618 53.1213704, 49.9357367 53.121342, 49.9356877 53.1213577, 49.9356538 53.1213195, 49.9355518 53.121352))",,,POINT (49.935650600737695 53.12136355771113),53.12136355771113,49.935650600737695,"Saratovskaya ulitsa, 21, Novokuybyshevsk"
248,4239,,"POLYGON ((49.9362126 53.1211398, 49.936311 53.1213311, 49.9364024 53.1213142, 49.9363906 53.1212913, 49.9364995 53.1212712, 49.9364908 53.1212543, 49.9365175 53.1212493, 49.9364931 53.1212018, 49.9364603 53.1212078, 49.9364503 53.1211884, 49.9363366 53.1212094, 49.9362931 53.1211249, 49.9362126 53.1211398))",,,POINT (49.936354584849155 53.121233438512306),53.12123343851231,49.93635458484916,"Saratovskaya ulitsa, 17А, Novokuybyshevsk"
249,4241,,"POLYGON ((49.9369613 53.1210576, 49.9369974 53.1211307, 49.9371667 53.1211006, 49.9371306 53.1210275, 49.9369613 53.1210576))",,,POINT (49.937064 53.12107910000001),53.12107910000001,49.937064,"Saratovskaya ulitsa, 15, Novokuybyshevsk"
250,4244,,"POLYGON ((49.9294866 53.1225955, 49.9295984 53.1225566, 49.9296566 53.122617, 49.9295448 53.1226558, 49.9294866 53.1225955))",,,POINT (49.92957160842935 53.122606217732745),53.122606217732745,49.92957160842935,"Ul'yanovskaya ulitsa, 54, Novokuybyshevsk"
251,4245,,"POLYGON ((49.9297309 53.1226924, 49.9298521 53.1226607, 49.9299275 53.1227649, 49.9298063 53.1227965, 49.9297309 53.1226924))",,,POINT (49.92982920499926 53.12272861851024),53.12272861851024,49.92982920499926,"Ul'yanovskaya ulitsa, 52А, Novokuybyshevsk"
252,4246,,"POLYGON ((49.9293826 53.1227597, 49.9295261 53.1227261, 49.9296254 53.1228785, 49.929482 53.1229121, 49.9293826 53.1227597))",,,POINT (49.929504018399165 53.122819092692836),53.12281909269284,49.929504018399165,"Ul'yanovskaya ulitsa, 56, Novokuybyshevsk"
253,4247,,"POLYGON ((49.930253 53.1224573, 49.9303696 53.1224132, 49.9304698 53.1225085, 49.9303532 53.1225526, 49.930253 53.1224573))",,,POINT (49.93036139999999 53.12248289999999),53.12248289999999,49.93036139999999,"Ul'yanovskaya ulitsa, 50, Novokuybyshevsk"
254,4251,,"POLYGON ((49.9304295 53.1223049, 49.9304551 53.1223302, 49.9304214 53.1223425, 49.9304714 53.1223921, 49.9305886 53.1223495, 49.930513 53.1222746, 49.9304295 53.1223049))",,,POINT (49.93049939558888 53.12233437686195),53.12233437686195,49.93049939558888,"Ul'yanovskaya ulitsa, 50А, Novokuybyshevsk"
255,4252,,"POLYGON ((49.9307327 53.122198, 49.9308596 53.122156, 49.9309544 53.1222593, 49.9308276 53.1223013, 49.9307327 53.122198))",,,POINT (49.93084356762332 53.122228645656186),53.122228645656186,49.93084356762332,"Ul'yanovskaya ulitsa, 46, Novokuybyshevsk"
256,4253,,"POLYGON ((49.9308699 53.1221267, 49.9309653 53.1222184, 49.9310501 53.1221867, 49.9309548 53.1220949, 49.9308699 53.1221267))",,,POINT (49.930960014722814 53.122156660470054),53.12215666047005,49.930960014722814,"Ul'yanovskaya ulitsa, 44А, Novokuybyshevsk"
257,4254,,"POLYGON ((49.9310498 53.1220007, 49.9312081 53.1219477, 49.931253 53.1219959, 49.9310946 53.1220489, 49.9310498 53.1220007))",,,POINT (49.9311513837869 53.12199829959559),53.12199829959559,49.9311513837869,"Ul'yanovskaya ulitsa, 44, Novokuybyshevsk"
258,4255,,"POLYGON ((49.9312285 53.1221009, 49.9313171 53.1220669, 49.9313976 53.1221424, 49.931309 53.1221764, 49.9312285 53.1221009))",,,POINT (49.93131305 53.12212165),53.12212165,49.93131305,"Ul'yanovskaya ulitsa, 42-2, Novokuybyshevsk"
259,4256,,"POLYGON ((49.9313529 53.1219372, 49.9314404 53.1220187, 49.9315506 53.1219761, 49.9314631 53.1218946, 49.9313529 53.1219372))",,,POINT (49.931451749999994 53.121956649999994),53.12195665,49.93145175,"Ul'yanovskaya ulitsa, 40, Novokuybyshevsk"
260,4257,,"POLYGON ((49.9314457 53.1218341, 49.9315093 53.1218107, 49.9315453 53.1218461, 49.9315716 53.1218364, 49.9316285 53.1218923, 49.9315385 53.1219253, 49.9314457 53.1218341))",,,POINT (49.931536650955266 53.121868252485996),53.121868252486,49.93153665095527,"Ul'yanovskaya ulitsa, 42, Novokuybyshevsk"
261,4258,,"POLYGON ((49.9316055 53.1216888, 49.9317588 53.121808, 49.9319093 53.1217382, 49.93182 53.1216688, 49.9317536 53.1216996, 49.9316895 53.1216499, 49.9316055 53.1216888))",,,POINT (49.93175800090245 53.12172577237407),53.12172577237407,49.93175800090245,"Ul'yanovskaya ulitsa, 38, Novokuybyshevsk"
262,4260,,"POLYGON ((49.9322387 53.1216449, 49.932282 53.1216269, 49.9322748 53.1216212, 49.9322687 53.1216101, 49.9322687 53.1215984, 49.9322754 53.1215866, 49.9322884 53.1215769, 49.9323061 53.1215703, 49.9323264 53.1215677, 49.932347 53.1215693, 49.9323655 53.121575, 49.9323798 53.121584, 49.932382 53.1215871, 49.9324131 53.1215741, 49.9325157 53.1216652, 49.9323413 53.121736, 49.9322387 53.1216449))",,,POINT (49.93236847338176 53.12164622372593),53.12164622372593,49.93236847338176,"Ul'yanovskaya ulitsa, 36, Novokuybyshevsk"
263,4261,,"POLYGON ((49.9325131 53.1214035, 49.9326137 53.1215012, 49.9327684 53.1214439, 49.9326678 53.1213461, 49.9325131 53.1214035))",,,POINT (49.932640755509354 53.1214236675385),53.1214236675385,49.93264075550936,"Ul'yanovskaya ulitsa, 34, Novokuybyshevsk"
264,4265,,"POLYGON ((49.9329464 53.1222007, 49.9329735 53.1222293, 49.9329942 53.1222222, 49.9330221 53.1222515, 49.9331505 53.1222075, 49.9330755 53.1221287, 49.9329635 53.1221672, 49.9329833 53.1221881, 49.9329464 53.1222007))",,,POINT (49.93304710367718 53.12219165549814),53.12219165549814,49.93304710367718,"Saratovskaya ulitsa, 31, Novokuybyshevsk"
265,4268,,"POLYGON ((49.9270816 53.1235196, 49.9271946 53.1234833, 49.9272797 53.1235786, 49.9271666 53.1236149, 49.9270816 53.1235196))",,,POINT (49.92718063234013 53.123549104668015),53.123549104668015,49.92718063234013,"Ul'yanovskaya ulitsa, 74, Novokuybyshevsk"
266,4269,,"POLYGON ((49.9273635 53.1234332, 49.9274484 53.1234027, 49.9274356 53.12339, 49.9275305 53.1233559, 49.9276141 53.1234396, 49.9274344 53.1235042, 49.9273635 53.1234332))",,,POINT (49.927488853641684 53.12343147241209),53.12343147241209,49.92748885364168,"Ul'yanovskaya ulitsa, 72, Novokuybyshevsk"
267,4270,,"POLYGON ((49.9277185 53.1232775, 49.9277921 53.1232461, 49.9278721 53.1233137, 49.9277986 53.1233451, 49.9277185 53.1232775))",,,POINT (49.92779531640471 53.12329559601031),53.12329559601031,49.92779531640471,"Ul'yanovskaya ulitsa, 68, Novokuybyshevsk"
268,4272,,"POLYGON ((49.9281477 53.1231407, 49.9282018 53.1232178, 49.9282999 53.123193, 49.9282457 53.1231159, 49.9281477 53.1231407))",,,POINT (49.92822378118416 53.1231668549886),53.1231668549886,49.92822378118416,"Ul'yanovskaya ulitsa, 64, Novokuybyshevsk"
269,4274,,"POLYGON ((49.928556 53.1229639, 49.9286682 53.1230916, 49.9288732 53.1230268, 49.9287893 53.1229313, 49.9287169 53.1229542, 49.9287481 53.1229897, 49.9287141 53.1230005, 49.9286546 53.1229327, 49.928556 53.1229639))",,,POINT (49.92871337625931 53.12300642922508),53.12300642922508,49.92871337625931,"Ul'yanovskaya ulitsa, 60, Novokuybyshevsk"
270,4275,,"POLYGON ((49.9289803 53.1228501, 49.9290528 53.12283, 49.9290394 53.1228125, 49.9291047 53.1227944, 49.9291675 53.1228759, 49.9290296 53.1229142, 49.9289803 53.1228501))",,,POINT (49.92907444300815 53.12285720609767),53.12285720609767,49.92907444300815,"Ul'yanovskaya ulitsa, 58, Novokuybyshevsk"
271,4279,,"POLYGON ((49.9292866 53.1233428, 49.9293907 53.123311, 49.9294728 53.1234077, 49.9293687 53.1234396, 49.9292866 53.1233428))",,,POINT (49.92937969730922 53.12337528239548),53.12337528239548,49.92937969730922,"Saratovskaya ulitsa, 41, Novokuybyshevsk"
272,4280,,"POLYGON ((49.9295055 53.1230479, 49.9296376 53.1230117, 49.9297034 53.1230984, 49.9295713 53.1231345, 49.9295055 53.1230479))",,,POINT (49.92960445790876 53.123073118684815),53.123073118684815,49.92960445790876,"Ul'yanovskaya ulitsa, 56А, Novokuybyshevsk"
273,4283,,"POLYGON ((49.9382281 53.1210552, 49.9382597 53.1211473, 49.9383798 53.1211325, 49.9383482 53.1210404, 49.9382281 53.1210552))",,,POINT (49.938303950000005 53.12109385),53.12109385,49.938303950000005,"Saratovskaya ulitsa, 9, Novokuybyshevsk"
274,4286,,"POLYGON ((49.9383554 53.1212093, 49.9384226 53.12128, 49.9385422 53.121239, 49.938475 53.1211684, 49.9383554 53.1212093))",,,POINT (49.93844879271805 53.12122418217556),53.12122418217556,49.93844879271805,"Saratovskaya ulitsa, 4, Novokuybyshevsk"
275,4291,,"POLYGON ((49.9369902 53.1213761, 49.9370313 53.1214515, 49.937114 53.1214352, 49.937073 53.1213599, 49.9369902 53.1213761))",,,POINT (49.9370521134093 53.12140567382193),53.12140567382193,49.9370521134093,"Saratovskaya ulitsa, 14, Novokuybyshevsk"
276,4297,,"POLYGON ((49.9351032 53.1219171, 49.9351258 53.1219466, 49.9350987 53.1219541, 49.9351442 53.1220135, 49.9352687 53.1219792, 49.9352005 53.1218902, 49.9351032 53.1219171))",,,POINT (49.93517795063041 53.121953138675245),53.121953138675245,49.93517795063041,"Saratovskaya ulitsa, 26, Novokuybyshevsk"
277,4300,,"POLYGON ((49.9339922 53.1223068, 49.9340425 53.1223661, 49.9341712 53.1223268, 49.934121 53.1222675, 49.9339922 53.1223068))",,,POINT (49.93408171802813 53.122316798289916),53.12231679828992,49.93408171802813,"Saratovskaya ulitsa, 32, Novokuybyshevsk"
278,4301,,"POLYGON ((49.9335421 53.122281, 49.9336005 53.122354, 49.9336862 53.1223293, 49.9336277 53.1222563, 49.9335421 53.122281))",,,POINT (49.93361413191082 53.12230515510961),53.12230515510961,49.93361413191082,"Saratovskaya ulitsa, 34, Novokuybyshevsk"
279,4303,,"POLYGON ((49.9329984 53.122548, 49.9331173 53.1225095, 49.9331934 53.1225943, 49.9330746 53.1226327, 49.9329984 53.122548))",,,POINT (49.93309592327122 53.12257111427757),53.12257111427757,49.93309592327122,"Saratovskaya ulitsa, 38, Novokuybyshevsk"
280,4305,,"POLYGON ((49.9317013 53.1228394, 49.9317708 53.1229486, 49.9318909 53.1229211, 49.9318479 53.1228535, 49.9318164 53.1228608, 49.9317898 53.1228191, 49.9317013 53.1228394))",,,POINT (49.931793565249116 53.122885132980386),53.12288513298039,49.93179356524912,"Saratovskaya ulitsa, 42, Novokuybyshevsk"
281,4310,,"POLYGON ((49.9305249 53.1233266, 49.9306551 53.123288, 49.930712 53.123357, 49.9305818 53.1233956, 49.9305249 53.1233266))",,,POINT (49.930618450000004 53.123341800000006),53.123341800000006,49.93061845,"Saratovskaya ulitsa, 52А, Novokuybyshevsk"
282,4318,,"POLYGON ((49.9166025 53.1252904, 49.9166007 53.1252299, 49.9165457 53.1252305, 49.9165445 53.1251907, 49.9167204 53.1251888, 49.9167212 53.1252148, 49.9167478 53.1252145, 49.916749 53.125256, 49.9167215 53.1252563, 49.9167225 53.1252891, 49.9166025 53.1252904))",,,POINT (49.916653979161744 53.12523506529345),53.12523506529345,49.916653979161744,"Ul'yanovskaya ulitsa, 81, Novokuybyshevsk"
283,4319,,"POLYGON ((49.9168361 53.1252762, 49.9168442 53.1253326, 49.9169963 53.1253247, 49.9169882 53.1252684, 49.9168361 53.1252762))",,,POINT (49.91691617773561 53.12530047659287),53.12530047659287,49.91691617773561,"Ul'yanovskaya ulitsa, 79А, Novokuybyshevsk"
284,4320,,"POLYGON ((49.9171179 53.1252234, 49.9171288 53.1250884, 49.9172676 53.1250924, 49.9172544 53.1252565, 49.9171513 53.1252535, 49.9171536 53.1252244, 49.9171179 53.1252234))",,,POINT (49.917194314330885 53.125169291297375),53.125169291297375,49.917194314330885,"Ul'yanovskaya ulitsa, 79-А, Novokuybyshevsk"
285,4321,,"POLYGON ((49.9175169 53.1252973, 49.9175287 53.1251842, 49.9176517 53.1251889, 49.9176399 53.1253019, 49.9175169 53.1252973))",,,POINT (49.91758429105196 53.12524307386226),53.12524307386226,49.91758429105196,"Ul'yanovskaya ulitsa, 77, Novokuybyshevsk"
286,4322,,"POLYGON ((49.9172996 53.1252157, 49.9172947 53.1252969, 49.9174053 53.1252993, 49.9174102 53.1252181, 49.9172996 53.1252157))",,,POINT (49.91735245 53.1252575),53.1252575,49.91735245,"Ul'yanovskaya ulitsa, 79, Novokuybyshevsk"
287,4323,,"POLYGON ((49.9177067 53.1252773, 49.9177134 53.1251562, 49.917885 53.1251596, 49.9178784 53.1252807, 49.9177067 53.1252773))",,,POINT (49.91779587444379 53.12521845586819),53.12521845586819,49.91779587444379,"Ul'yanovskaya ulitsa, 75, Novokuybyshevsk"
288,4324,,"POLYGON ((49.9181941 53.1251561, 49.9182874 53.1251434, 49.9183204 53.1252306, 49.9183011 53.1252332, 49.9183165 53.1252739, 49.9182424 53.125284, 49.9181941 53.1251561))",,,POINT (49.91826115943814 53.12521099162078),53.12521099162078,49.91826115943814,"Ul'yanovskaya ulitsa, 71, Novokuybyshevsk"
289,4326,,"POLYGON ((49.9186327 53.1251524, 49.9186672 53.1252493, 49.9188806 53.1252219, 49.9188461 53.125125, 49.9186327 53.1251524))",,,POINT (49.91875665 53.125187149999995),53.12518715,49.91875665,"Ul'yanovskaya ulitsa, 69Б, Novokuybyshevsk"
290,4327,,"POLYGON ((49.9185548 53.1248178, 49.918712 53.1248064, 49.9187322 53.1249064, 49.9186217 53.1249144, 49.918613 53.1248711, 49.9185663 53.1248745, 49.9185548 53.1248178))",,,POINT (49.91865082203872 53.12485731821109),53.12485731821109,49.91865082203872,"Ul'yanovskaya ulitsa, 71Б, Novokuybyshevsk"
291,4333,,"POLYGON ((49.9163959 53.1241757, 49.916412 53.1243062, 49.9164973 53.1243024, 49.9164813 53.1241719, 49.9163959 53.1241757))",,,POINT (49.916446623200116 53.124239037338484),53.12423903733848,49.91644662320012,"Vol'skaya ulitsa, 43, Novokuybyshevsk"
292,4335,,"POLYGON ((49.9170116 53.1241669, 49.9170116 53.1240669, 49.9171051 53.1240669, 49.9171051 53.1241669, 49.9170116 53.1241669))",,,POINT (49.91705835 53.124116900000004),53.1241169,49.91705835,"Vol'skaya ulitsa, 41, Novokuybyshevsk"
293,4337,,"POLYGON ((49.917625 53.1241394, 49.9176388 53.1242138, 49.9177352 53.1242073, 49.9177213 53.1241329, 49.917625 53.1241394))",,,POINT (49.91768007690206 53.124173356306564),53.12417335630656,49.91768007690206,"Vol'skaya ulitsa, 37, Novokuybyshevsk"
294,4339,,"POLYGON ((49.9179816 53.1241599, 49.9181446 53.1241487, 49.9181621 53.1242409, 49.9179991 53.1242521, 49.9179816 53.1241599))",,,POINT (49.91807184999999 53.12420039999999),53.12420039999999,49.91807184999999,"Vol'skaya ulitsa, 33, Novokuybyshevsk"
295,4343,,"POLYGON ((49.9195631 53.1238206, 49.9196268 53.1239431, 49.9197747 53.1239154, 49.9197111 53.1237929, 49.9195631 53.1238206))",,,POINT (49.91966892001544 53.12386799403338),53.12386799403338,49.91966892001544,"Vol'skaya ulitsa, 25, Novokuybyshevsk"
296,4345,,"POLYGON ((49.9203671 53.1237473, 49.9203981 53.1238326, 49.9204868 53.123821, 49.9204558 53.1237357, 49.9203671 53.1237473))",,,POINT (49.92042694999999 53.12378415),53.12378415,49.92042694999999,"Vol'skaya ulitsa, 21, Novokuybyshevsk"
297,4348,,"POLYGON ((49.9209225 53.1236668, 49.9209798 53.1237442, 49.9210799 53.1237175, 49.9210227 53.1236401, 49.9209225 53.1236668))",,,POINT (49.921001218619786 53.12369214526064),53.12369214526064,49.921001218619786,"Vol'skaya ulitsa, 17, Novokuybyshevsk"
298,4354,,"POLYGON ((49.9224374 53.123233, 49.9225052 53.1233253, 49.9225565 53.1233117, 49.922548 53.1233001, 49.9225881 53.1232895, 49.9225288 53.1232088, 49.9224374 53.123233))",,,POINT (49.92251377775665 53.12326508971799),53.12326508971799,49.92251377775665,"Vol'skaya ulitsa, 7А, Novokuybyshevsk"
299,4359,,"POLYGON ((49.923675 53.1226779, 49.9237588 53.1226564, 49.9238141 53.122734, 49.9237302 53.1227555, 49.923675 53.1226779))",,,POINT (49.923744531595695 53.12270595602099),53.12270595602099,49.923744531595695,"Vol'skaya ulitsa, 1, Novokuybyshevsk"
300,4361,,"POLYGON ((49.9238342 53.1231692, 49.923977 53.1231266, 49.9240467 53.1232107, 49.9239039 53.1232533, 49.9238342 53.1231692))",,,POINT (49.92394044999999 53.12318994999999),53.12318994999999,49.92394044999999,"Bakinskiy pereulok, 5, Novokuybyshevsk"
301,4362,,"POLYGON ((49.9243407 53.1237809, 49.9243874 53.1238427, 49.9244737 53.1238192, 49.9244857 53.123835, 49.9245334 53.1238221, 49.9244748 53.1237444, 49.9243407 53.1237809))",,,POINT (49.92443713504858 53.123795812802825),53.123795812802825,49.92443713504858,"Ul'yanovskaya ulitsa, 45, Novokuybyshevsk"
302,4364,,"POLYGON ((49.9249818 53.1236338, 49.9250446 53.1237091, 49.9251765 53.1236695, 49.9251137 53.1235942, 49.9249818 53.1236338))",,,POINT (49.92507915 53.123651650000006),53.123651650000006,49.92507915,"Ul'yanovskaya ulitsa, 43, Novokuybyshevsk"
303,4365,,"POLYGON ((49.9191515 53.1251013, 49.9191851 53.1252013, 49.9193311 53.1251836, 49.9192975 53.1250836, 49.9191515 53.1251013))",,,POINT (49.91924129999999 53.125142450000006),53.125142450000006,49.91924129999999,"Ul'yanovskaya ulitsa, 69, Novokuybyshevsk"
304,4366,,"POLYGON ((49.9195329 53.1249948, 49.9195761 53.1250828, 49.9196459 53.1250705, 49.9196705 53.1251206, 49.9197512 53.1251064, 49.9196833 53.1249682, 49.9195329 53.1249948))",,,POINT (49.919645823982385 53.1250402345376),53.1250402345376,49.91964582398239,"Ul'yanovskaya ulitsa, 67Б, Novokuybyshevsk"
305,4367,,"POLYGON ((49.9199907 53.1249798, 49.9200288 53.1250705, 49.9202336 53.1250395, 49.9201954 53.1249488, 49.9199907 53.1249798))",,,POINT (49.920112129137436 53.12500965306507),53.12500965306507,49.92011212913744,"Ul'yanovskaya ulitsa, 67А, Novokuybyshevsk"
306,4368,,"POLYGON ((49.9205718 53.1248806, 49.9207534 53.1248439, 49.9208021 53.1249309, 49.9206695 53.1249576, 49.920652 53.1249264, 49.920603 53.1249363, 49.9205718 53.1248806))",,,POINT (49.92069239804535 53.12490129275127),53.12490129275127,49.92069239804535,"Ul'yanovskaya ulitsa, 65, Novokuybyshevsk"
307,4369,,"POLYGON ((49.9207878 53.1248228, 49.9208302 53.12491, 49.9210048 53.1248795, 49.9209623 53.1247922, 49.9207878 53.1248228))",,,POINT (49.92089629401105 53.12485112381149),53.12485112381149,49.92089629401105,"Ul'yanovskaya ulitsa, 63, Novokuybyshevsk"
308,4370,,"POLYGON ((49.9211528 53.1247638, 49.921199 53.1248222, 49.9213644 53.124775, 49.9213182 53.1247166, 49.9211528 53.1247638))",,,POINT (49.921258599999994 53.12476939999999),53.12476939999999,49.9212586,"Ul'yanovskaya ulitsa, 61, Novokuybyshevsk"
309,4372,,"POLYGON ((49.9217651 53.1245066, 49.9219476 53.1244584, 49.9220264 53.1245659, 49.921926 53.1245924, 49.9218791 53.1245284, 49.9217969 53.1245501, 49.9217651 53.1245066))",,,POINT (49.92190827201877 53.12452343878198),53.12452343878198,49.92190827201877,"Ul'yanovskaya ulitsa, 59, Novokuybyshevsk"
310,4373,,"POLYGON ((49.9221033 53.1244972, 49.9222527 53.1244555, 49.9223271 53.1245514, 49.9222607 53.12457, 49.922242 53.124546, 49.9221592 53.1245691, 49.9221033 53.1244972))",,,POINT (49.92221609099168 53.124517011345105),53.12451701134511,49.92221609099168,"Ul'yanovskaya ulitsa, 57, Novokuybyshevsk"
311,4374,,"POLYGON ((49.9223106 53.1244971, 49.9223535 53.1245529, 49.9225033 53.1245114, 49.9224604 53.1244556, 49.9223106 53.1244971))",,,POINT (49.92240695 53.12450425),53.12450425,49.92240695,"Ul'yanovskaya ulitsa, 55, Novokuybyshevsk"
312,4377,,"POLYGON ((49.9227596 53.1243165, 49.9228991 53.1242828, 49.9229358 53.1243375, 49.9227962 53.1243712, 49.9227596 53.1243165))",,,POINT (49.92284768130283 53.124327001744376),53.124327001744376,49.92284768130283,"Ul'yanovskaya ulitsa, 53, Novokuybyshevsk"
313,4378,,"POLYGON ((49.922918 53.1242366, 49.9229695 53.1243243, 49.9230746 53.1243021, 49.9230231 53.1242144, 49.922918 53.1242366))",,,POINT (49.9229963 53.124269350000006),53.124269350000006,49.9229963,"Ul'yanovskaya ulitsa, 51А, Novokuybyshevsk"
314,4379,,"POLYGON ((49.9230969 53.1241831, 49.9231193 53.1242127, 49.9230908 53.1242204, 49.9231212 53.1242605, 49.9231454 53.1242539, 49.9231709 53.1242875, 49.9233688 53.1242336, 49.9232907 53.1241303, 49.9230969 53.1241831))",,,POINT (49.92322635316488 53.124210258667546),53.124210258667546,49.92322635316488,"Ul'yanovskaya ulitsa, 51, Novokuybyshevsk"
315,4380,,"POLYGON ((49.9234159 53.1240977, 49.9235694 53.1240566, 49.9236442 53.1241572, 49.9235218 53.12419, 49.9234885 53.1241453, 49.9234574 53.1241536, 49.9234159 53.1240977))",,,POINT (49.92353403790116 53.124123075845155),53.12412307584516,49.92353403790116,"Ul'yanovskaya ulitsa, 49, Novokuybyshevsk"
316,4382,,"POLYGON ((49.9239045 53.1239544, 49.9240408 53.1239132, 49.9241322 53.1240219, 49.9239958 53.1240632, 49.9239045 53.1239544))",,,POINT (49.924018327380516 53.123988186509386),53.123988186509386,49.92401832738052,"Ul'yanovskaya ulitsa, 47, Novokuybyshevsk"
317,4386,,"POLYGON ((49.9200897 53.1241736, 49.9201401 53.124269, 49.9202789 53.1242426, 49.9202284 53.1241472, 49.9200897 53.1241736))",,,POINT (49.92018427984828 53.12420810480726),53.12420810480726,49.92018427984828,"Vol'skaya ulitsa, 40, Novokuybyshevsk"
318,4388,,"POLYGON ((49.9206026 53.1240276, 49.9206631 53.1241162, 49.9207836 53.1240866, 49.9207231 53.123998, 49.9206026 53.1240276))",,,POINT (49.920693099999994 53.1240571),53.1240571,49.9206931,"Vol'skaya ulitsa, 38, Novokuybyshevsk"
319,4391,,"POLYGON ((49.921634 53.1237775, 49.9217645 53.1237416, 49.9218216 53.1238164, 49.9216911 53.1238523, 49.921634 53.1237775))",,,POINT (49.921727800000006 53.123796950000006),53.123796950000006,49.921727800000006,"Vol'skaya ulitsa, 28, Novokuybyshevsk"
320,4399,,"POLYGON ((49.923608 53.1235485, 49.9237405 53.1235112, 49.9237762 53.1235569, 49.9236436 53.1235942, 49.923608 53.1235485))",,,POINT (49.92369208241512 53.12355270078649),53.12355270078649,49.92369208241512,"Bakinskiy pereulok, 8, Novokuybyshevsk"
321,4406,,"POLYGON ((49.918036 53.1225879, 49.9180509 53.1225273, 49.9182242 53.1225427, 49.9182092 53.1226033, 49.918036 53.1225879))",,,POINT (49.918130077775935 53.12256529733188),53.12256529733188,49.918130077775935,"Dorozhnyy pereulok, 7, Novokuybyshevsk"
322,4409,,"POLYGON ((49.9162094 53.1225641, 49.9162129 53.1225078, 49.9163431 53.1225107, 49.9163396 53.1225671, 49.9162094 53.1225641))",,,POINT (49.916276269213704 53.122537425659345),53.12253742565935,49.9162762692137,"Novyy pereulok, 11-Б, Novokuybyshevsk"
323,4413,,"POLYGON ((49.9153167 53.1230761, 49.9153258 53.1231679, 49.9155002 53.1231617, 49.9154911 53.1230699, 49.9153167 53.1230761))",,,POINT (49.91540845 53.1231189),53.1231189,49.91540845,"Novyy pereulok, 12А, Novokuybyshevsk"
324,4414,,"POLYGON ((49.915278 53.1233046, 49.9154375 53.1233019, 49.9154403 53.1233607, 49.9154215 53.1233611, 49.9154248 53.1234319, 49.9153438 53.1234332, 49.9153425 53.1234054, 49.9153098 53.1234059, 49.9153082 53.1233719, 49.9152812 53.1233724, 49.915278 53.1233046))",,,POINT (49.915363407764296 53.123359543751086),53.123359543751086,49.915363407764296,"Novyy pereulok, 8А, Novokuybyshevsk"
325,4419,,"POLYGON ((49.9161125 53.1231378, 49.9161199 53.123215, 49.9162541 53.1232103, 49.9162466 53.1231332, 49.9161125 53.1231378))",,,POINT (49.916183261564555 53.12317408072103),53.12317408072103,49.91618326156456,"Novyy pereulok, 5, Novokuybyshevsk"
326,4421,,"POLYGON ((49.9161703 53.1228431, 49.9161762 53.1227543, 49.9163147 53.1227576, 49.9163112 53.1228101, 49.9162676 53.122809, 49.9162652 53.1228454, 49.9161703 53.1228431))",,,POINT (49.91623574063199 53.12279631240922),53.12279631240922,49.91623574063199,"Novyy pereulok, 9, Novokuybyshevsk"
327,4422,,"POLYGON ((49.9169676 53.1228479, 49.9170298 53.1228474, 49.9170285 53.1227948, 49.917156 53.1227937, 49.917158 53.1228781, 49.9169683 53.1228797, 49.9169676 53.1228479))",,,POINT (49.91707863757173 53.122840650685106),53.12284065068511,49.91707863757173,"Novyy pereulok, 11, Novokuybyshevsk"
328,4424,,"POLYGON ((49.9180178 53.1229993, 49.9182433 53.1229847, 49.9182599 53.1230771, 49.9180344 53.1230917, 49.9180178 53.1229993))",,,POINT (49.918138850000005 53.1230382),53.1230382,49.918138850000005,"Dorozhnyy pereulok, 10, Novokuybyshevsk"
329,4426,,"POLYGON ((49.9181404 53.1234455, 49.918151 53.1234961, 49.9182997 53.1234849, 49.9182808 53.1233941, 49.9182114 53.1233993, 49.9182198 53.1234395, 49.9181404 53.1234455))",,,POINT (49.918228235987165 53.1234521098032),53.1234521098032,49.918228235987165,"Dorozhnyy pereulok, 6, Novokuybyshevsk"
330,4427,,"POLYGON ((49.9181172 53.1235366, 49.9182874 53.1235261, 49.9183055 53.1236317, 49.9182236 53.1236367, 49.9182139 53.12358, 49.9181256 53.1235855, 49.9181172 53.1235366))",,,POINT (49.91822555024813 53.123573720302076),53.12357372030208,49.91822555024813,"Dorozhnyy pereulok, 4, Novokuybyshevsk"
331,4429,,"POLYGON ((49.9165841 53.1257932, 49.9165864 53.1257, 49.916751 53.1257014, 49.9167487 53.1257946, 49.9165841 53.1257932))",,,POINT (49.91666755 53.12574729999999),53.12574729999999,49.91666755,"Ul'yanovskaya ulitsa, 124, Novokuybyshevsk"
332,4430,,"POLYGON ((49.9171761 53.125747, 49.9172024 53.1259236, 49.9174568 53.12591, 49.9174305 53.1257333, 49.9171761 53.125747))",,,POINT (49.917316461778775 53.125828473506495),53.125828473506495,49.917316461778775,"Ul'yanovskaya ulitsa, 122, Novokuybyshevsk"
333,4431,,"POLYGON ((49.9168532 53.1258965, 49.9168671 53.1258054, 49.9170212 53.1258139, 49.9170073 53.125905, 49.9168532 53.1258965))",,,POINT (49.9169372 53.125855200000004),53.1258552,49.9169372,"Ul'yanovskaya ulitsa, 122А, Novokuybyshevsk"
334,4432,,"POLYGON ((49.9175564 53.1258219, 49.9175635 53.1257201, 49.9177199 53.125724, 49.9177112 53.1258495, 49.91764 53.1258477, 49.9176416 53.1258241, 49.9175564 53.1258219))",,,POINT (49.917641820080384 53.12577907241034),53.12577907241034,49.917641820080384,"Ul'yanovskaya ulitsa, 120, Novokuybyshevsk"
335,4433,,"POLYGON ((49.9181378 53.1257033, 49.918151 53.1258338, 49.918233 53.1258308, 49.9182284 53.1257856, 49.9182678 53.1257842, 49.9182592 53.1256989, 49.9181378 53.1257033))",,,POINT (49.918199352190705 53.12576112907444),53.12576112907444,49.91819935219071,"Ul'yanovskaya ulitsa, 116А, Novokuybyshevsk"
336,4434,,"POLYGON ((49.91861 53.1256801, 49.9186316 53.1257702, 49.9187284 53.1257618, 49.9187199 53.1257261, 49.918835 53.1257161, 49.9188219 53.1256618, 49.91861 53.1256801))",,,POINT (49.91871167212503 53.125709675584844),53.12570967558485,49.91871167212503,"Ul'yanovskaya ulitsa, 116, Novokuybyshevsk"
337,4436,,"POLYGON ((49.9192146 53.1256204, 49.9193843 53.1255972, 49.9194231 53.1256991, 49.9193505 53.1257091, 49.9193406 53.125683, 49.9192434 53.1256963, 49.9192146 53.1256204))",,,POINT (49.91932257626181 53.12565242419033),53.12565242419033,49.91932257626181,"Ul'yanovskaya ulitsa, 114, Novokuybyshevsk"
338,4437,,"POLYGON ((49.9196449 53.1255067, 49.9196959 53.1255955, 49.9198257 53.1255687, 49.9197747 53.1254799, 49.9196449 53.1255067))",,,POINT (49.919735300000006 53.1255377),53.1255377,49.919735300000006,"Ul'yanovskaya ulitsa, 110, Novokuybyshevsk"
339,4438,,"POLYGON ((49.9203178 53.1254747, 49.9203662 53.1255588, 49.9204828 53.1255346, 49.9204343 53.1254505, 49.9203178 53.1254747))",,,POINT (49.92040028023581 53.125504654926004),53.125504654926,49.92040028023581,"Ul'yanovskaya ulitsa, 106, Novokuybyshevsk"
340,4439,,"POLYGON ((49.9207612 53.1253083, 49.9208422 53.1254112, 49.9210055 53.125365, 49.9209396 53.1252812, 49.9208703 53.1253008, 49.9208552 53.1252817, 49.9207612 53.1253083))",,,POINT (49.92088215991806 53.12534136538169),53.12534136538169,49.92088215991806,"Ul'yanovskaya ulitsa, 104, Novokuybyshevsk"
341,4440,,"POLYGON ((49.9212799 53.1251987, 49.9213124 53.1251888, 49.9212953 53.1251686, 49.9213957 53.1251382, 49.9214721 53.1252292, 49.9213392 53.1252693, 49.9212799 53.1251987))",,,POINT (49.92137208086251 53.125204934752794),53.1252049347528,49.92137208086251,"Ul'yanovskaya ulitsa, 102, Novokuybyshevsk"
342,4441,,"POLYGON ((49.9215607 53.1251058, 49.9216174 53.1251896, 49.9217368 53.1251606, 49.9216801 53.1250767, 49.9215607 53.1251058))",,,POINT (49.92164875789207 53.12513316912257),53.12513316912257,49.92164875789207,"Ul'yanovskaya ulitsa, 100, Novokuybyshevsk"
343,4442,,"POLYGON ((49.9217414 53.1250536, 49.9217943 53.1251256, 49.9219785 53.1250769, 49.9219457 53.1250322, 49.9218856 53.1250481, 49.9218655 53.1250208, 49.9217414 53.1250536))",,,POINT (49.921853513077544 53.125070722937366),53.125070722937366,49.92185351307754,"Ul'yanovskaya ulitsa, 96А, Novokuybyshevsk"
344,4444,,"POLYGON ((49.9222324 53.1249164, 49.9223444 53.1250751, 49.9225459 53.1250239, 49.9224339 53.1248652, 49.9222324 53.1249164))",,,POINT (49.92238915000001 53.12497015),53.12497015,49.92238915000001,"Ul'yanovskaya ulitsa, 96, Novokuybyshevsk"
345,4445,,"POLYGON ((49.9226161 53.1247947, 49.9227487 53.1249738, 49.9229336 53.1249245, 49.9228009 53.1247454, 49.9226161 53.1247947))",,,POINT (49.922774831909166 53.124859606231425),53.12485960623143,49.922774831909166,"Ul'yanovskaya ulitsa, 94, Novokuybyshevsk"
346,4446,,"POLYGON ((49.9229582 53.1247516, 49.9230212 53.1248251, 49.9231053 53.1247992, 49.9230423 53.1247257, 49.9229582 53.1247516))",,,POINT (49.92303174999999 53.12477539999999),53.12477539999999,49.92303174999999,"Ul'yanovskaya ulitsa, 86, Novokuybyshevsk"
347,4448,,"POLYGON ((49.9239523 53.1244806, 49.9240852 53.1246402, 49.9242525 53.1245901, 49.9241975 53.124524, 49.9241522 53.1245376, 49.924123 53.1245025, 49.9241584 53.1244919, 49.9241098 53.1244334, 49.9239523 53.1244806))",,,POINT (49.92409780082033 53.124538505565326),53.124538505565326,49.92409780082033,"Ul'yanovskaya ulitsa, 82А, Novokuybyshevsk"
348,4449,,"POLYGON ((49.9238395 53.1246859, 49.9239013 53.1247651, 49.9239887 53.1247405, 49.923927 53.1246613, 49.9238395 53.1246859))",,,POINT (49.92391411805132 53.12471319440753),53.12471319440753,49.92391411805132,"Ul'yanovskaya ulitsa, 84, Novokuybyshevsk"
349,4450,,"POLYGON ((49.9242823 53.1244575, 49.9242212 53.1243882, 49.924344 53.1243492, 49.9243917 53.1244033, 49.9243062 53.1244305, 49.9243196 53.1244457, 49.9242823 53.1244575))",,,POINT (49.924305496370025 53.12439954891595),53.12439954891595,49.924305496370025,"Ul'yanovskaya ulitsa, 82, Novokuybyshevsk"
350,4451,,"POLYGON ((49.9247249 53.1243482, 49.9246477 53.1242574, 49.9248284 53.1242021, 49.9248894 53.1242738, 49.9247889 53.1243046, 49.9248051 53.1243237, 49.9247249 53.1243482))",,,POINT (49.92476731831342 53.124272033108305),53.12427203310831,49.92476731831342,"Ul'yanovskaya ulitsa, 80, Novokuybyshevsk"
351,4452,,"POLYGON ((49.9249929 53.1241818, 49.9251058 53.1241421, 49.9251999 53.1242385, 49.9251171 53.1242676, 49.9251003 53.1242504, 49.9250702 53.124261, 49.9249929 53.1241818))",,,POINT (49.92509653333198 53.124207441713594),53.1242074417136,49.92509653333198,"Ul'yanovskaya ulitsa, 78, Novokuybyshevsk"
352,4453,,"POLYGON ((49.9246018 53.1249688, 49.9247045 53.1249415, 49.9247558 53.1250108, 49.9246531 53.1250382, 49.9246018 53.1249688))",,,POINT (49.924678792262625 53.12498983122315),53.12498983122315,49.92467879226263,"Naberezhnaya ulitsa, 1, Novokuybyshevsk"
353,4454,,"POLYGON ((49.9234642 53.1253972, 49.9235103 53.1254468, 49.9236897 53.1253868, 49.9236435 53.1253371, 49.9234642 53.1253972))",,,POINT (49.92357695575952 53.12539196486372),53.12539196486372,49.92357695575952,"Ul'yanovskaya ulitsa, 88, Novokuybyshevsk"
354,4455,,"POLYGON ((49.9225373 53.1256624, 49.9226521 53.1256372, 49.9226911 53.1257013, 49.922626 53.1257156, 49.9226194 53.125705, 49.9225699 53.1257158, 49.9225373 53.1256624))",,,POINT (49.922615487715035 53.1256792220725),53.1256792220725,49.92261548771504,"Naberezhnaya ulitsa, 3, Novokuybyshevsk"
355,4456,,"POLYGON ((49.9205581 53.1260577, 49.9205868 53.1261145, 49.9207536 53.1260841, 49.9207249 53.1260273, 49.9205581 53.1260577))",,,POINT (49.920655849999996 53.126070899999995),53.1260709,49.92065585,"Naberezhnaya ulitsa, 11, Novokuybyshevsk"
