,Unnamed: 0,name,geometry,addr:street,addr:housenumber,centroid,lat,lon,address
0,0,"Нова, Самарское народное предприятие",POINT (49.9695479 53.0945992),,,POINT (49.9695479 53.0945992),53.0945992,49.9695479,"Shkol'nyy pereulok, 36, Novokuybyshevsk"
1,1,,POINT (49.9948137 53.0887904),,,POINT (49.9948137 53.0887904),53.0887904,49.9948137,"prospekt Pobedy, 32, Novokuybyshevsk"
2,22,,"POLYGON ((49.9912273 53.0882709, 49.9912327 53.088358, 49.9913239 53.0883934, 49.9913936 53.0883644, 49.9913708 53.0883, 49.9914258 53.088287, 49.9915116 53.0883193, 49.9915868 53.0882903, 49.991576 53.0882355, 49.9916404 53.0882065, 49.9916189 53.0881485, 49.9916619 53.0881228, 49.9916619 53.0880679, 49.9915814 53.0880326, 49.9915251 53.0880503, 49.9915331 53.0881267, 49.9914714 53.0881597, 49.9913615 53.0881309, 49.9913574 53.0880631, 49.9912689 53.0880341, 49.9912757 53.0879568, 49.991336 53.087927, 49.9914165 53.0879536, 49.9914661 53.0879359, 49.9914634 53.0878803, 49.9913789 53.0878513, 49.9913682 53.0877934, 49.9912904 53.0877603, 49.9911818 53.0878058, 49.9911979 53.0878224, 49.9911094 53.0878489, 49.9910992 53.0879549, 49.9910221 53.0880142, 49.9911367 53.0881254, 49.9911311 53.0881796, 49.9912273 53.0882709))",,,POINT (49.991322132345665 53.088087504893025),53.08808750489303,49.99132213234567,"ulitsa Karbysheva, 2, Novokuybyshevsk"
3,28,Билетные кассы,"POLYGON ((49.9844077 53.1013319, 49.9845463 53.1014135, 49.984393 53.1015072, 49.9842545 53.1014256, 49.9844077 53.1013319))",,,POINT (49.984400383391495 53.10141954930648),53.10141954930648,49.984400383391495,"Zheleznodorozhnaya ulitsa, 17А, Novokuybyshevsk"
4,89,,"POLYGON ((49.9877959 53.0866785, 49.9878637 53.0865917, 49.9884235 53.0867494, 49.9883574 53.086834, 49.9884416 53.0868577, 49.9884005 53.0869103, 49.9876861 53.086709, 49.9877254 53.0866587, 49.9877959 53.0866785))",,,POINT (49.988090520603684 53.08674418590878),53.08674418590878,49.98809052060368,"ulitsa Karbysheva, 8, Novokuybyshevsk"
5,91,,"POLYGON ((49.9849072 53.0858056, 49.9849346 53.0857706, 49.9854848 53.0859256, 49.9854537 53.0859653, 49.9855517 53.0859929, 49.9854773 53.0860882, 49.9847314 53.0858781, 49.9848095 53.0857781, 49.9849072 53.0858056))",,,POINT (49.98515245412051 53.085918994845095),53.085918994845095,49.98515245412051,"ulitsa Karbysheva, 12, Novokuybyshevsk"
6,158,,"POLYGON ((49.9578974 53.0947129, 49.9577828 53.0947579, 49.9576739 53.094658, 49.9577885 53.094613, 49.9578974 53.0947129))",,,POINT (49.95778565 53.09468545),53.09468545,49.95778565,"ploshchad' Mendeleyeva, 10, Novokuybyshevsk"
7,194,,"POLYGON ((49.9694532 53.0956019, 49.9695202 53.0955492, 49.9689836 53.0953032, 49.9688659 53.0953958, 49.9689557 53.095437, 49.9688938 53.0954857, 49.9690266 53.0955465, 49.9689798 53.0955833, 49.96919 53.0956797, 49.9693494 53.0955544, 49.9694532 53.0956019))",,,POINT (49.969149774257296 53.095496710939344),53.095496710939344,49.969149774257296,"ulitsa Dzerzhinskogo, 27, Novokuybyshevsk"
8,195,,"POLYGON ((49.9697616 53.095758, 49.9698498 53.0956876, 49.9701113 53.0958266, 49.9700934 53.0962748, 49.9699777 53.096329, 49.9698928 53.0963587, 49.9698183 53.0962774, 49.9699559 53.0962249, 49.9699719 53.0958609, 49.9697616 53.095758))",,,POINT (49.969989865584196 53.096023584206634),53.09602358420664,49.9699898655842,"prospekt Pobedy, 26, Novokuybyshevsk"
9,196,,"POLYGON ((49.9692491 53.0963522, 49.9691881 53.096295, 49.969056 53.0963458, 49.9689363 53.0963918, 49.9691441 53.0965866, 49.9692737 53.0965368, 49.9691269 53.0963992, 49.9692491 53.0963522))",,,POINT (49.969116383291166 53.096438882198576),53.096438882198576,49.969116383291166,"prospekt Pobedy, 24, Novokuybyshevsk"
10,200,,"POLYGON ((49.9738193 53.0937852, 49.9740397 53.0937084, 49.973934 53.0935989, 49.9737136 53.0936757, 49.9738193 53.0937852))",,,POINT (49.973876649999994 53.09369205),53.09369205,49.97387665,"Kiyevskaya ulitsa, 35, Novokuybyshevsk"
11,206,,"POLYGON ((49.9596376 53.0999694, 49.9597093 53.1000394, 49.9598421 53.0999903, 49.9598707 53.1000182, 49.959847 53.1000269, 49.9598916 53.1000704, 49.9599246 53.1000763, 49.960108 53.1000073, 49.9601253 53.0999827, 49.9600837 53.099944, 49.9600692 53.0999497, 49.9600478 53.0999298, 49.9601774 53.0998796, 49.9601998 53.0999005, 49.960243 53.0999094, 49.9605178 53.099808, 49.9603963 53.0996893, 49.9596376 53.0999694))",,,POINT (49.96008661291688 53.099888632938885),53.099888632938885,49.96008661291688,"prospekt Pobedy, 6, Novokuybyshevsk"
12,214,,"POLYGON ((49.9557815 53.0995529, 49.9558898 53.0996502, 49.9561167 53.0995591, 49.9560083 53.0994618, 49.9557815 53.0995529))",,,POINT (49.95594908314167 53.09955600030473),53.09955600030473,49.95594908314167,"ulitsa Gor'kogo, 43, Novokuybyshevsk"
13,230,,"POLYGON ((49.9272205 53.1084472, 49.9270567 53.1084994, 49.9269249 53.1083504, 49.9270887 53.1082982, 49.9272205 53.1084472))",,,POINT (49.927072700000004 53.10839880000001),53.10839880000001,49.9270727,"ulitsa Mira, 10, Novokuybyshevsk"
14,231,,"POLYGON ((49.9295298 53.1204708, 49.92964 53.1204449, 49.9296474 53.1204561, 49.9298363 53.1204117, 49.9298298 53.1204017, 49.9299408 53.1203756, 49.9300004 53.1204671, 49.9295902 53.1205634, 49.9295298 53.1204708))",,,POINT (49.92976628355808 53.12047162653334),53.12047162653334,49.92976628355808,"poselok 38 Massiv, 9, Novokuybyshevsk"
15,247,,"POLYGON ((49.9306937 53.1185679, 49.9309733 53.1186163, 49.9310373 53.1184833, 49.9307577 53.1184349, 49.9306937 53.1185679))",,,POINT (49.9308655 53.11852560000001),53.11852560000001,49.9308655,"Molodogvardeyskaya ulitsa, 10, Novokuybyshevsk"
16,253,,"POLYGON ((49.9262533 53.1200198, 49.9261814 53.1199047, 49.9268516 53.119754, 49.9269249 53.1198715, 49.9268487 53.1198886, 49.9268896 53.1199542, 49.9267834 53.1199782, 49.9267133 53.1198661, 49.9264734 53.1199201, 49.92654 53.1200266, 49.9263272 53.1200745, 49.9262881 53.120012, 49.9262533 53.1200198))",,,POINT (49.92654716233552 53.11990740488747),53.11990740488747,49.92654716233552,"Molodogvardeyskaya ulitsa, 22А, Novokuybyshevsk"
17,258,,"POLYGON ((49.9398536 53.1156061, 49.9398069 53.1154383, 49.9410733 53.1153112, 49.9411201 53.115479, 49.9398536 53.1156061))",,,POINT (49.94046348143964 53.11545865045786),53.11545865045786,49.94046348143964,"Sadovaya ulitsa, 4, Novokuybyshevsk"
18,259,,"POLYGON ((49.9413173 53.1154346, 49.9412983 53.1153549, 49.9415051 53.1153372, 49.9415241 53.1154169, 49.9413173 53.1154346))",,,POINT (49.9414112 53.11538590000001),53.11538590000001,49.9414112,"Sadovaya ulitsa, 2А, Novokuybyshevsk"
19,278,,"POLYGON ((49.9763699 53.088636, 49.976585 53.0885587, 49.9764608 53.0884341, 49.9761311 53.0885526, 49.9761858 53.0886076, 49.9763005 53.0885663, 49.9763699 53.088636))",,,POINT (49.97637737099395 53.08853969934737),53.08853969934737,49.97637737099395,"ulitsa Sverdlova, 23, Novokuybyshevsk"
20,279,,"POLYGON ((49.9767713 53.0884704, 49.97687 53.0884343, 49.9763733 53.0879448, 49.9762746 53.0879809, 49.9767713 53.0884704))",,,POINT (49.9765723 53.0882076),53.0882076,49.9765723,"ulitsa Sverdlova, 27, Novokuybyshevsk"
21,280,,"POLYGON ((49.9650937 53.0867982, 49.9652538 53.0867317, 49.9655209 53.0869637, 49.9653607 53.0870303, 49.9650937 53.0867982))",,,POINT (49.96530729294464 53.08688099351359),53.08688099351359,49.96530729294464,"Kiyevskaya ulitsa, 13А, Novokuybyshevsk"
22,281,,"POLYGON ((49.9649731 53.086696, 49.9649353 53.0866627, 49.9648669 53.0866026, 49.9654144 53.0864164, 49.9659974 53.0867608, 49.9658559 53.0868388, 49.9653772 53.0865361, 49.9649731 53.086696))",,,POINT (49.96545523936742 53.08660880947167),53.08660880947167,49.96545523936742,"Kiyevskaya ulitsa, 13, Novokuybyshevsk"
23,289,,"POLYGON ((49.9824308 53.0865858, 49.9825164 53.0866722, 49.9823449 53.0867335, 49.9822594 53.0866471, 49.9824308 53.0865858))",,,POINT (49.98238788243754 53.08665965154027),53.08665965154027,49.98238788243754,"ulitsa Karbysheva, 22A, Novokuybyshevsk"
24,299,,"POLYGON ((49.9845448 53.0873996, 49.9847013 53.0873359, 49.9846258 53.0872691, 49.9844694 53.0873329, 49.9845448 53.0873996))",,,POINT (49.984585343463 53.08733436701333),53.08733436701333,49.984585343463,"ulitsa Karbysheva, 10В, Novokuybyshevsk"
25,305,,"POLYGON ((49.9815294 53.0916867, 49.9814682 53.091621, 49.9816616 53.0915487, 49.981734 53.0916185, 49.981694 53.0916334, 49.9817517 53.0916891, 49.9817985 53.0916716, 49.981881 53.0917512, 49.9817446 53.0918022, 49.9817693 53.0918261, 49.9816471 53.0918718, 49.9815778 53.0918054, 49.9816848 53.0917658, 49.9815831 53.0916668, 49.9815294 53.0916867))",,,POINT (49.98167545956521 53.091704452544775),53.091704452544775,49.98167545956521,"prospekt Pobedy, 40, Novokuybyshevsk"
26,307,,"POLYGON ((49.9794847 53.0918084, 49.9796996 53.0917277, 49.9798315 53.0918546, 49.9798629 53.0918428, 49.9799252 53.0919028, 49.9796841 53.0919934, 49.9796077 53.09192, 49.9795646 53.0919362, 49.9795308 53.0919036, 49.9795688 53.0918893, 49.9794847 53.0918084))",,,POINT (49.979694432102455 53.091862900752716),53.09186290075272,49.979694432102455,"ulitsa Sverdlova, 15В, Novokuybyshevsk"
27,316,,"POLYGON ((49.9524606 53.0964871, 49.9525204 53.0965424, 49.9527546 53.0967585, 49.9529512 53.0969447, 49.9530167 53.0969181, 49.9528205 53.0967323, 49.9525856 53.0965138, 49.9525285 53.0964607, 49.9524606 53.0964871))",,,POINT (49.95273906558258 53.0967013055982),53.0967013055982,49.95273906558258,"ulitsa Pirogova, 1, Novokuybyshevsk"
28,329,,"POLYGON ((49.9513641 53.1004128, 49.9514152 53.1003308, 49.9516739 53.1003892, 49.9516487 53.1004294, 49.9516218 53.1004707, 49.9513641 53.1004128))",,,POINT (49.951518814803855 53.10040085470439),53.10040085470439,49.951518814803855,"ulitsa Kutuzova, 16, Novokuybyshevsk"
29,330,,"POLYGON ((49.9505399 53.1006561, 49.9506017 53.100548, 49.9506839 53.100565, 49.9507374 53.1004716, 49.9508673 53.1004984, 49.9508125 53.1005941, 49.9509786 53.1006284, 49.9509431 53.1006905, 49.9508602 53.1006734, 49.9508352 53.100717, 49.9505399 53.1006561))",,,POINT (49.95075318467198 53.10060960705073),53.10060960705073,49.95075318467198,"ulitsa Kutuzova, 14А, Novokuybyshevsk"
30,334,,"POLYGON ((49.9477504 53.0976465, 49.9478075 53.0972949, 49.9479283 53.0973019, 49.9480437 53.0973087, 49.9480938 53.0973116, 49.9480367 53.0976633, 49.9477504 53.0976465))",,,POINT (49.947922104873086 53.09747907062492),53.09747907062492,49.947922104873086,"ulitsa Frunze, 22А, Novokuybyshevsk"
31,366,,"POLYGON ((49.9752299 53.0915967, 49.9753649 53.0915466, 49.9753108 53.091494, 49.9751757 53.0915441, 49.9752299 53.0915967))",,,POINT (49.97527031683836 53.091545349782045),53.091545349782045,49.97527031683836,"ulitsa Sverdlova, 20Б, Novokuybyshevsk"
32,371,,"POLYGON ((49.9658678 53.0860177, 49.9659316 53.0859583, 49.9657361 53.0858825, 49.9653295 53.0862605, 49.9654163 53.0862942, 49.9657591 53.0859755, 49.9658678 53.0860177))",,,POINT (49.965620421142674 53.08606839671738),53.08606839671738,49.965620421142674,"ulitsa Druzhby, 49, Novokuybyshevsk"
33,374,,"POLYGON ((49.9657709 53.0861197, 49.9664451 53.0864919, 49.9665749 53.0864071, 49.965936 53.0860544, 49.9658753 53.086094, 49.96584 53.0860745, 49.9657709 53.0861197))",,,POINT (49.96618003693712 53.086268388430966),53.086268388430966,49.96618003693712,"ulitsa Druzhby, 52, Novokuybyshevsk"
34,375,,"POLYGON ((49.9665373 53.0863128, 49.9666371 53.0862485, 49.9666984 53.0862829, 49.9665987 53.0863471, 49.9665373 53.0863128))",,,POINT (49.96661787236471 53.086297818702434),53.086297818702434,49.96661787236471,"ulitsa Druzhby, 55, Novokuybyshevsk"
35,378,,"POLYGON ((49.9660557 53.0858486, 49.9661454 53.0858963, 49.9667698 53.0854728, 49.9671136 53.0856556, 49.966516 53.086061, 49.9666674 53.0861415, 49.9673382 53.0856865, 49.9667533 53.0853754, 49.9660557 53.0858486))",,,POINT (49.96677597986222 53.08575063697478),53.08575063697478,49.96677597986222,"Vishnevaya ulitsa, 51, Novokuybyshevsk"
36,380,,"POLYGON ((49.9667627 53.0861685, 49.9668508 53.0862152, 49.9675265 53.0857559, 49.9674385 53.0857092, 49.9667627 53.0861685))",,,POINT (49.96714458860084 53.08596222416421),53.08596222416421,49.96714458860084,"ulitsa Druzhby, 54, Novokuybyshevsk"
37,381,,"POLYGON ((49.9670894 53.0854548, 49.9671819 53.0853987, 49.9676462 53.0856747, 49.9675537 53.0857308, 49.9670894 53.0854548))",,,POINT (49.9673678 53.085564749999996),53.08556475,49.9673678,"Chernorechenskaya ulitsa, 55, Novokuybyshevsk"
38,382,,"POLYGON ((49.9675609 53.085944, 49.9678365 53.0857648, 49.9679903 53.0858501, 49.9677147 53.0860293, 49.9675609 53.085944))",,,POINT (49.9677756 53.08589705000001),53.08589705000001,49.9677756,"Vishnevaya ulitsa, 55, Novokuybyshevsk"
39,384,,"POLYGON ((49.968078 53.0860976, 49.968237 53.0859942, 49.9684198 53.0860957, 49.9683342 53.0861513, 49.9683085 53.0861371, 49.9682351 53.0861848, 49.968078 53.0860976))",,,POINT (49.968246410834624 53.08609167905365),53.08609167905365,49.968246410834624,"Vishnevaya ulitsa, 57, Novokuybyshevsk"
40,385,,"POLYGON ((49.9679936 53.0855477, 49.968084 53.0855978, 49.9679566 53.0856806, 49.9686278 53.086053, 49.9685482 53.0861047, 49.9677867 53.0856822, 49.9679936 53.0855477))",,,POINT (49.968170193665976 53.085827143153644),53.08582714315365,49.968170193665976,"Chernorechenskaya ulitsa, 57, Novokuybyshevsk"
41,387,,"POLYGON ((49.9671148 53.0902905, 49.9672969 53.0902225, 49.9670584 53.0899922, 49.9668763 53.0900602, 49.9671148 53.0902905))",,,POINT (49.9670866 53.090141349999996),53.09014135,49.9670866,"ulitsa Dzerzhinskogo, 16Б, Novokuybyshevsk"
42,388,,"POLYGON ((49.9684053 53.0895852, 49.9685798 53.089765, 49.9687215 53.0897154, 49.9687438 53.0897385, 49.9689041 53.0896824, 49.9687929 53.0895678, 49.9686473 53.0896188, 49.9685617 53.0895305, 49.9684053 53.0895852))",,,POINT (49.96864776694774 53.0896493698759),53.0896493698759,49.96864776694774,"Kiyevskaya ulitsa, 80-Б, Novokuybyshevsk"
43,389,,"POLYGON ((49.9673804 53.0900102, 49.9674187 53.0899969, 49.9675322 53.0899574, 49.9676299 53.0900587, 49.9674781 53.0901115, 49.9673804 53.0900102))",,,POINT (49.967505154932375 53.090034453719035),53.09003445371904,49.967505154932375,"Kiyevskaya ulitsa, 2, Novokuybyshevsk"
44,412,,"POLYGON ((49.9772088 53.0956896, 49.9773257 53.0956474, 49.9774618 53.095783, 49.9773449 53.0958253, 49.9772088 53.0956896))",,,POINT (49.977335301873396 53.095736334024934),53.09573633402493,49.9773353018734,"ulitsa Dzerzhinskogo, 38В, Novokuybyshevsk"
45,414,,"POLYGON ((49.9800384 53.0958576, 49.9802234 53.0957879, 49.9799331 53.0955101, 49.9797481 53.0955797, 49.9800384 53.0958576))",,,POINT (49.97998575582332 53.095683835884174),53.095683835884174,49.97998575582332,"ulitsa Sverdlova, 10, Novokuybyshevsk"
46,415,,"POLYGON ((49.9803262 53.0961445, 49.9804988 53.0960795, 49.9803359 53.0959259, 49.980253 53.0958477, 49.9802775 53.0958383, 49.9802239 53.0957881, 49.9800274 53.0958638, 49.9801644 53.0959925, 49.9803262 53.0961445))",,,POINT (49.98026235334771 53.09596739473235),53.09596739473235,49.98026235334771,"ulitsa Sverdlova, 10/1, Novokuybyshevsk"
47,428,,"POLYGON ((49.9815019 53.0985176, 49.9814836 53.09855, 49.9815742 53.0985684, 49.9815924 53.098536, 49.9815019 53.0985176))",,,POINT (49.981538019246486 53.09854300181265),53.09854300181265,49.981538019246486,"ulitsa Dzerzhinskogo, 58, Novokuybyshevsk"
48,432,,"POLYGON ((49.9803262 53.0961445, 49.9804683 53.0962806, 49.9806409 53.0962156, 49.9804988 53.0960795, 49.9803262 53.0961445))",,,POINT (49.98048354999999 53.09618005),53.09618005,49.98048354999999,"ulitsa Sverdlova, 6А, Novokuybyshevsk"
49,434,,"POLYGON ((49.9808031 53.0963453, 49.9805989 53.0964204, 49.9807836 53.0966014, 49.9808882 53.096704, 49.9810679 53.0966379, 49.9809635 53.0965355, 49.980843 53.0964174, 49.9808675 53.0964084, 49.9808031 53.0963453))",,,POINT (49.98083311845595 53.096524792512184),53.09652479251218,49.98083311845595,"ulitsa Sverdlova, 6А/1, Novokuybyshevsk"
50,438,,"POLYGON ((49.9773435 53.0962792, 49.9773872 53.0963189, 49.9775318 53.0962613, 49.977441 53.096179, 49.9773593 53.0962115, 49.9774064 53.0962542, 49.9773435 53.0962792))",,,POINT (49.9774323635968 53.09624997429448),53.09624997429448,49.9774323635968,"ulitsa Sverdlova, 12А, Novokuybyshevsk"
51,441,,"POLYGON ((49.9814684 53.0972404, 49.9817699 53.097536, 49.9819227 53.0974798, 49.9818988 53.0974564, 49.9819379 53.097442, 49.9817237 53.097232, 49.9816983 53.0972414, 49.9816348 53.0971792, 49.9814684 53.0972404))",,,POINT (49.98171250732321 53.09735539266184),53.09735539266184,49.98171250732321,"ulitsa Sverdlova, 4Б, Novokuybyshevsk"
52,450,,"POLYGON ((49.9749799 53.1002787, 49.9750139 53.1002128, 49.9759092 53.1003794, 49.9758751 53.1004453, 49.9749799 53.1002787))",,,POINT (49.975444544508434 53.10032905301697),53.10032905301697,49.975444544508434,"ulitsa Dzerzhinskogo, 41А, Novokuybyshevsk"
53,475,,"POLYGON ((49.9577447 53.08422, 49.9579658 53.0843009, 49.9580828 53.0841855, 49.9578617 53.0841046, 49.9577447 53.08422))",,,POINT (49.957913749999996 53.084202749999996),53.08420275,49.95791375,"Kiyevskaya ulitsa, 3А, Novokuybyshevsk"
54,493,,"POLYGON ((49.9648891 53.0977114, 49.9650174 53.0976633, 49.9649638 53.0976118, 49.9648355 53.0976598, 49.9648891 53.0977114))",,,POINT (49.96492643767782 53.097661583096226),53.09766158309623,49.96492643767782,"prospekt Pobedy, 18A, Novokuybyshevsk"
55,494,,"POLYGON ((49.9669576 53.0970899, 49.9670724 53.0970454, 49.9670175 53.0969943, 49.9669027 53.0970388, 49.9669576 53.0970899))",,,POINT (49.96698754999999 53.0970421),53.0970421,49.96698754999999,"prospekt Pobedy, 20А, Novokuybyshevsk"
56,495,,"POLYGON ((49.9615739 53.0957056, 49.9613587 53.0957883, 49.9615699 53.0959864, 49.9617851 53.0959037, 49.9615739 53.0957056))",,,POINT (49.9615719 53.095846),53.095846,49.9615719,"ulitsa Ostrovskogo, 12, Novokuybyshevsk"
57,500,,"POLYGON ((49.9232459 53.1258658, 49.9231884 53.1257856, 49.9237596 53.1256381, 49.9238171 53.1257183, 49.9232459 53.1258658))",,,POINT (49.92350274999999 53.12575195),53.12575195,49.92350274999999,"Naberezhnaya ulitsa, 2, Novokuybyshevsk"
58,502,,"POLYGON ((49.9147388 53.1254748, 49.9150316 53.1254604, 49.9150167 53.1253519, 49.914821 53.1253615, 49.9148115 53.125292, 49.9147145 53.1252968, 49.9147388 53.1254748))",,,POINT (49.91485850821767 53.12539860561155),53.12539860561155,49.91485850821767,"Ul'yanovskaya ulitsa, 83, Novokuybyshevsk"
59,505,Аттракционы,"POLYGON ((49.9416157 53.099245, 49.9417697 53.0992885, 49.9419135 53.0991045, 49.9417596 53.0990611, 49.9416157 53.099245))",,,POINT (49.9417646177338 53.09917479069309),53.09917479069309,49.9417646177338,"ulitsa Suvorova, 51, Novokuybyshevsk"
60,507,,"POLYGON ((49.942678 53.1002002, 49.9427663 53.1001666, 49.9428673 53.1002626, 49.9427789 53.1002961, 49.942678 53.1002002))",,,POINT (49.94277263221023 53.100231371790386),53.10023137179039,49.94277263221023,"ulitsa Suvorova, 49, Novokuybyshevsk"
61,521,,"POLYGON ((49.9653684 53.0949104, 49.9653237 53.0948678, 49.9654087 53.0948356, 49.9654534 53.0948782, 49.9653684 53.0949104))",,,POINT (49.96538855 53.094873),53.094873,49.96538855,"ulitsa Dzerzhinskogo, 21А, Novokuybyshevsk"
62,523,,"POLYGON ((49.9803249 53.0874581, 49.9806365 53.087363, 49.9805607 53.0872736, 49.9802492 53.0873687, 49.9803249 53.0874581))",,,POINT (49.98044283365283 53.087365849750014),53.087365849750014,49.98044283365283,"ulitsa Karbysheva, 28А, Novokuybyshevsk"
63,524,,"POLYGON ((49.9745049 53.0911878, 49.9746281 53.0911411, 49.9745797 53.0910952, 49.9744566 53.0911419, 49.9745049 53.0911878))",,,POINT (49.97454233339636 53.09114149992196),53.09114149992196,49.97454233339636,"Kiyevskaya ulitsa, 22Б, Novokuybyshevsk"
64,530,,"POLYGON ((49.9607971 53.1016322, 49.9610867 53.1016714, 49.9615585 53.1004148, 49.9612689 53.1003755, 49.9607971 53.1016322))",проспект Победы,,POINT (49.96117780302282 53.10102346183349),53.10102346183349,49.96117780302282,"Priozernyy pereulok, 125, Novokuybyshevsk"
65,531,,"POLYGON ((49.9626239 53.1018977, 49.9629262 53.1019425, 49.9634048 53.100702, 49.9631005 53.1006578, 49.9626239 53.1018977))",проспект Победы,,POINT (49.9630140869463 53.10129943199509),53.10129943199509,49.9630140869463,"prospekt Pobedy, 1V, Novokuybyshevsk"
66,577,,"POLYGON ((49.956409 53.1067092, 49.956306 53.106613, 49.9566073 53.1064967, 49.9567656 53.1066445, 49.956632 53.106696, 49.9565768 53.1066444, 49.956409 53.1067092))",,,POINT (49.95653946441729 53.10661091464096),53.10661091464096,49.95653946441729,"ulitsa Bocharikova, 6, Novokuybyshevsk"
67,578,,"POLYGON ((49.9978294 53.096712, 49.997998 53.0965632, 49.9982031 53.0966469, 49.9982447 53.0966102, 49.9983379 53.0966482, 49.9982719 53.0967065, 49.9985468 53.0968188, 49.9986057 53.0967669, 49.9987671 53.0968328, 49.9985641 53.0970121, 49.9984112 53.0969496, 49.9979943 53.0967794, 49.9978294 53.096712))",,,POINT (49.998290317162834 53.09678642702056),53.09678642702056,49.998290317162834,"Zheleznodorozhnyy proyezd, 1, Novokuybyshevsk"
68,579,"Столовая ""Новатэк""","POLYGON ((49.9986959 53.0966585, 49.9987979 53.0965648, 49.9988253 53.0965756, 49.9992279 53.0962059, 49.9993885 53.096269, 49.9989837 53.0966407, 49.9990503 53.0966668, 49.9989505 53.0967585, 49.9986959 53.0966585))",,,POINT (49.999040254624305 53.09649062064027),53.09649062064027,49.99904025462431,"Zheleznodorozhnyy proyezd, 1К3, Novokuybyshevsk"
69,580,,"POLYGON ((49.9986032 53.0967668, 49.9987118 53.0966659, 49.9988752 53.0967292, 49.9987666 53.0968302, 49.9986032 53.0967668))",,,POINT (49.99873920531394 53.096748032598754),53.096748032598754,49.99873920531394,"Zheleznodorozhnyy proyezd, 1К1, Novokuybyshevsk"
70,581,,"POLYGON ((49.9909268 53.1024388, 49.9910628 53.102513, 49.9913714 53.1023093, 49.9912354 53.1022351, 49.9909268 53.1024388))",,,POINT (49.991149099999994 53.10237405000001),53.10237405000001,49.9911491,"Novokuybyshevsk, Samara 446201, Russia"
71,584,,"POLYGON ((49.9406147 53.120022, 49.9405426 53.1198569, 49.941147 53.1197617, 49.9412192 53.1199268, 49.9406147 53.120022))",,,POINT (49.940880880426384 53.11989185142152),53.11989185142152,49.940880880426384,"Samarskoye shosse, 3, Novokuybyshevsk"
72,585,,"POLYGON ((49.9474969 53.1173294, 49.9476903 53.1171366, 49.9484853 53.1174238, 49.9482918 53.1176167, 49.9474969 53.1173294))",,,POINT (49.94799110931798 53.117376637406856),53.117376637406856,49.94799110931798,"Polevaya ulitsa, 1, Novokuybyshevsk"
73,587,,"POLYGON ((49.9483593 53.118961, 49.948056 53.1190061, 49.9479869 53.1188388, 49.9482902 53.1187937, 49.9483593 53.118961))",,,POINT (49.9481731 53.1188999),53.1188999,49.9481731,"Ozernaya ulitsa, 1Б, Novokuybyshevsk"
74,609,,"POLYGON ((49.9383505 53.0821568, 49.9385716 53.0822368, 49.9386765 53.0821321, 49.9384555 53.0820521, 49.9383505 53.0821568))",,,POINT (49.93851351742434 53.082144451205366),53.082144451205366,49.93851351742434,"Promyshlennaya ulitsa, 5А, Novokuybyshevsk"
75,611,,"POLYGON ((49.944854 53.0837642, 49.9453009 53.0832928, 49.9465632 53.0837246, 49.9461163 53.084196, 49.944854 53.0837642))",,,POINT (49.945708599999996 53.0837444),53.0837444,49.9457086,"ulitsa Kirova, 8A, Novokuybyshevsk"
76,613,,"POLYGON ((49.9444043 53.083073, 49.9452999 53.0821368, 49.9479625 53.0830559, 49.9478917 53.0831299, 49.9453504 53.0822527, 49.9445256 53.0831148, 49.9444043 53.083073))",,,POINT (49.94600005230103 53.08264354527004),53.08264354527004,49.94600005230103,"kvartal 2-y, 16, Voskresenka"
77,618,,"POLYGON ((49.9530782 53.0831166, 49.9532647 53.0831251, 49.9532512 53.0832312, 49.9535314 53.0832441, 49.9535447 53.0831393, 49.9536961 53.0831463, 49.9537051 53.0830914, 49.9535542 53.0830844, 49.9535575 53.0830586, 49.9532768 53.0830457, 49.9532733 53.083073, 49.9530856 53.0830644, 49.9530782 53.0831166))",,,POINT (49.953398176143374 53.08313436932357),53.08313436932357,49.953398176143374,"ulitsa Mironova, 37A, Novokuybyshevsk"
78,619,,"POLYGON ((49.969906 53.0767217, 49.9698289 53.0766353, 49.9698653 53.0765952, 49.9701068 53.0765854, 49.970179 53.0766168, 49.9702349 53.0767049, 49.9701952 53.076733, 49.9699543 53.0767407, 49.969906 53.0767217))",,,POINT (49.97003292111681 53.0766635095315),53.0766635095315,49.97003292111681,"Shosseynaya ulitsa, 4А, Novokuybyshevsk"
79,634,,"POLYGON ((49.951555 53.1091569, 49.9515543 53.1091338, 49.9517122 53.109132, 49.9517084 53.1090147, 49.9513256 53.1090192, 49.9513275 53.1090791, 49.9512548 53.1090799, 49.9512573 53.1091604, 49.951555 53.1091569))",,,POINT (49.95148807099894 53.109086804227914),53.10908680422792,49.95148807099894,"Pervomayskaya ulitsa, 6АК1, Novokuybyshevsk"
80,636,,"POLYGON ((49.9491121 53.1104677, 49.9492843 53.1104654, 49.9492758 53.1102343, 49.9489633 53.1102384, 49.9489654 53.1102963, 49.9490345 53.1102954, 49.9490395 53.1104306, 49.9491107 53.1104296, 49.9491121 53.1104677))",,,POINT (49.949151141739655 53.11034097948804),53.11034097948804,49.949151141739655,"ulitsa Yegorova, 1, Novokuybyshevsk"
81,637,,"POLYGON ((49.9469164 53.0403449, 49.946916 53.0402853, 49.9472584 53.0402845, 49.9472588 53.0403441, 49.9469164 53.0403449))",,,POINT (49.94708740000001 53.0403147),53.0403147,49.94708740000001,"poselok Gvardeyets SNT, 42, Voskresenka"
82,638,,"POLYGON ((49.9478697 53.0403596, 49.9478693 53.0403, 49.9482116 53.0402991, 49.948212 53.0403587, 49.9478697 53.0403596))",,,POINT (49.94804065 53.04032935),53.04032935,49.94804065,"poselok Fialka-2 SDT, 41, Voskresenka"
83,639,,"POLYGON ((49.9330855 53.1014664, 49.9332761 53.1012714, 49.9336044 53.101387, 49.9334139 53.101582, 49.9330855 53.1014664))",,,POINT (49.933344967726185 53.101426702388146),53.10142670238815,49.933344967726185,"ulitsa Kirova, 8С18, Novokuybyshevsk"
84,640,,"POLYGON ((49.8740551 53.0841679, 49.8741941 53.0842198, 49.8743252 53.0840931, 49.8741862 53.0840412, 49.8740551 53.0841679))",,,POINT (49.874190150000004 53.084130500000015),53.084130500000015,49.87419015,"ulitsa Energetikov, 5С1, Novokuybyshevsk"
85,644,,"POLYGON ((49.9569547 53.1091734, 49.9570193 53.1092299, 49.9571214 53.1091879, 49.9570864 53.1091573, 49.9570568 53.1091313, 49.9569547 53.1091734))",,,POINT (49.95703804361171 53.109180622641155),53.10918062264116,49.95703804361171,"Pervomayskaya ulitsa, 16, Novokuybyshevsk"
86,647,,"POLYGON ((49.9566583 53.1024973, 49.9565878 53.1024091, 49.9563602 53.1024747, 49.9564307 53.1025629, 49.9566583 53.1024973))",,,POINT (49.95650925 53.102486),53.102486,49.95650925,"ulitsa Udarnikov, 14, Novokuybyshevsk"
87,652,,"POLYGON ((49.95083 53.1065804, 49.9510037 53.1065197, 49.9507356 53.1062434, 49.9505619 53.1063042, 49.95083 53.1065804))",,,POINT (49.9507827945925 53.10641191402901),53.10641191402901,49.9507827945925,"ulitsa L'va Tolstogo, 1, Novokuybyshevsk"
88,653,,"POLYGON ((49.9511886 53.1064217, 49.9511909 53.1062207, 49.951373 53.1062215, 49.9513727 53.1062413, 49.9519032 53.1062434, 49.9519011 53.1064285, 49.9517348 53.1064279, 49.9517356 53.106359, 49.9513479 53.1063574, 49.9513472 53.1064224, 49.9511886 53.1064217))",,,POINT (49.951539804713114 53.10631623152581),53.10631623152581,49.95153980471312,"ulitsa L'va Tolstogo, 19А, Novokuybyshevsk"
89,657,,"POLYGON ((49.9531879 53.1081027, 49.9534813 53.1079765, 49.9535516 53.1080354, 49.9537114 53.1079667, 49.9536128 53.1078841, 49.9531597 53.108079, 49.9531879 53.1081027))",,,POINT (49.953491953888204 53.1079832048736),53.1079832048736,49.95349195388821,"Raskovoy proyezd, 6, Novokuybyshevsk"
90,667,,"POLYGON ((49.9596789 53.0975748, 49.9595259 53.0974263, 49.9593968 53.0974742, 49.9595497 53.0976227, 49.9596789 53.0975748))",,,POINT (49.9595378340861 53.09752450621197),53.09752450621197,49.9595378340861,"Leningradskaya ulitsa, 20, Novokuybyshevsk"
91,678,,"POLYGON ((49.9465862 53.1026848, 49.9464735 53.1025761, 49.9466159 53.1025229, 49.9466731 53.1025782, 49.9468578 53.1025092, 49.9469132 53.1025626, 49.9465862 53.1026848))",,,POINT (49.946675826915005 53.102590830355204),53.1025908303552,49.946675826915005,"ulitsa Kutuzova, 4Б, Novokuybyshevsk"
92,696,,"POLYGON ((49.9596091 53.0891304, 49.9597773 53.0890673, 49.9598277 53.0891158, 49.9599749 53.0890605, 49.9600749 53.0891565, 49.9597594 53.0892749, 49.9596091 53.0891304))",,,POINT (49.95983563881158 53.08915824211094),53.08915824211094,49.95983563881158,"Molodezhnaya ulitsa, 8, Novokuybyshevsk"
93,698,,"POLYGON ((49.9588518 53.0894022, 49.9590313 53.0893344, 49.9590771 53.0893782, 49.9592098 53.0893281, 49.9593192 53.0894326, 49.959007 53.0895505, 49.9588518 53.0894022))",,,POINT (49.95908046019966 53.08942976401232),53.08942976401232,49.95908046019966,"Molodezhnaya ulitsa, 6, Novokuybyshevsk"
94,700,,"POLYGON ((49.958139 53.0896984, 49.9583169 53.0896322, 49.9583457 53.0896602, 49.9585166 53.0895966, 49.9586329 53.0897094, 49.9582841 53.0898391, 49.958139 53.0896984))",,,POINT (49.95838262938377 53.089713529867204),53.0897135298672,49.95838262938377,"Molodezhnaya ulitsa, 4, Novokuybyshevsk"
95,702,,"POLYGON ((49.9603314 53.0888483, 49.9604873 53.0887894, 49.9605436 53.0888432, 49.9607019 53.0887834, 49.9607999 53.088877, 49.9604856 53.0889956, 49.9603314 53.0888483))",,,POINT (49.96055911091326 53.088879798305385),53.088879798305385,49.96055911091326,"Molodezhnaya ulitsa, 10, Novokuybyshevsk"
96,704,,"POLYGON ((49.8097807 53.0486906, 49.8098495 53.0486354, 49.8100361 53.0487194, 49.8101933 53.0485933, 49.8102785 53.0486317, 49.8101172 53.0487611, 49.8102597 53.0488253, 49.8101949 53.0488773, 49.8097807 53.0486906))",,,POINT (49.810063649603336 53.04872966918358),53.04872966918358,49.810063649603336,"Novokuybyshevsk, Samara 446200, Russia"
97,730,,"POLYGON ((49.9466957 53.0936516, 49.946917 53.0936658, 49.9469333 53.0935744, 49.9467121 53.0935601, 49.9466957 53.0936516))",,,POINT (49.94681450328452 53.093612976429995),53.09361297643,49.94681450328452,"ulitsa Kadomtseva, 3Б, Novokuybyshevsk"
98,769,,"POLYGON ((49.9405634 53.0963831, 49.940661 53.096388, 49.9406773 53.0962728, 49.9407284 53.0962754, 49.940752 53.0961089, 49.9406032 53.0961013, 49.9405634 53.0963831))",,,POINT (49.94065161769073 53.09623193609636),53.09623193609636,49.94065161769073,"ulitsa Chapayeva, 2Б, Novokuybyshevsk"
99,770,,"POLYGON ((49.9427136 53.0952338, 49.9428845 53.0952438, 49.9429137 53.0950638, 49.9427428 53.0950538, 49.9427136 53.0952338))",,,POINT (49.942813650000005 53.095148800000004),53.0951488,49.942813650000005,"ulitsa Chernyshevskogo, 4A, Novokuybyshevsk"
100,771,,"POLYGON ((49.9424759 53.0948335, 49.9429838 53.0948636, 49.9429622 53.0949953, 49.9426009 53.0949739, 49.9425545 53.0952404, 49.9424097 53.0952296, 49.9424759 53.0948335))",,,POINT (49.94264039154573 53.09498324975608),53.09498324975608,49.94264039154573,"ulitsa Chernyshevskogo, 1В, Novokuybyshevsk"
101,813,,"POLYGON ((49.9548316 53.0929194, 49.9552004 53.0929311, 49.9552055 53.0928724, 49.9548367 53.0928607, 49.9548316 53.0929194))",,,POINT (49.955018550000005 53.0928959),53.0928959,49.955018550000005,"Leningradskaya ulitsa, 6, Novokuybyshevsk"
102,814,,"POLYGON ((49.9559186 53.0927609, 49.9563495 53.0925977, 49.9562964 53.0925471, 49.9558654 53.0927103, 49.9559186 53.0927609))",,,POINT (49.95610745503607 53.09265400658183),53.09265400658183,49.95610745503607,"ulitsa Ostrovskogo, 3А, Novokuybyshevsk"
103,838,,"POLYGON ((49.9516999 53.0850789, 49.9521936 53.0851092, 49.9522189 53.084961, 49.9517252 53.0849307, 49.9516999 53.0850789))",,,POINT (49.9519594 53.08501995),53.08501995,49.9519594,"ulitsa Mironova, 29, Novokuybyshevsk"
104,839,,"POLYGON ((49.9544104 53.0856935, 49.9545111 53.0857322, 49.9545744 53.0856728, 49.9544736 53.0856341, 49.9544104 53.0856935))",,,POINT (49.954492382566194 53.085683147993166),53.085683147993166,49.954492382566194,"ulitsa Kirova, 6А, Novokuybyshevsk"
105,843,,"POLYGON ((49.9482199 53.0854683, 49.9491018 53.0855161, 49.9491199 53.0853959, 49.948238 53.0853481, 49.9482199 53.0854683))",,,POINT (49.94866989999998 53.0854321),53.0854321,49.94866989999998,"ulitsa Mironova, 30С1, Novokuybyshevsk"
106,844,,"POLYGON ((49.9494738 53.0855138, 49.9507075 53.0855807, 49.9507246 53.0854668, 49.9494909 53.0853999, 49.9494738 53.0855138))",,,POINT (49.95009919999999 53.0854903),53.0854903,49.95009919999999,"ulitsa Mironova, 30, Novokuybyshevsk"
107,845,,"POLYGON ((49.9566657 53.0841726, 49.9568592 53.0839923, 49.9567051 53.0839326, 49.9565115 53.0841129, 49.9566657 53.0841726))",,,POINT (49.95668536566034 53.084052606129895),53.084052606129895,49.95668536566034,"ulitsa Stroiteley, 15А, Novokuybyshevsk"
108,854,,"POLYGON ((49.9527521 53.0935589, 49.9530121 53.0935733, 49.9530553 53.0932915, 49.9527954 53.0932771, 49.9527521 53.0935589))",,,POINT (49.952903723202965 53.09342520893424),53.09342520893424,49.952903723202965,"ulitsa Kadomtseva, 9, Novokuybyshevsk"
109,855,,"POLYGON ((49.950879 53.0945358, 49.951378 53.0945554, 49.9513928 53.0944189, 49.9511837 53.0944107, 49.9511759 53.0944821, 49.9508861 53.0944708, 49.950879 53.0945358))",,,POINT (49.95118007287187 53.09449335967463),53.09449335967463,49.95118007287187,"ulitsa Chernyshevskogo, 14А, Novokuybyshevsk"
110,857,,"POLYGON ((49.9444941 53.0891794, 49.944774 53.0891911, 49.9447869 53.0890803, 49.944507 53.0890686, 49.9444941 53.0891794))",,,POINT (49.94464049999999 53.08912985),53.08912985,49.94464049999999,"ulitsa Gagarina, 2Д, Novokuybyshevsk"
111,858,,"POLYGON ((49.9435957 53.0894421, 49.9437143 53.089513, 49.9435219 53.089629, 49.9434034 53.0895581, 49.9435957 53.0894421))",,,POINT (49.94355883434601 53.089535547435375),53.089535547435375,49.94355883434601,"ulitsa Gagarina, 2-Б, Novokuybyshevsk"
112,875,,"POLYGON ((49.9487337 53.0877328, 49.949308 53.0877578, 49.9493191 53.0876662, 49.9487448 53.0876411, 49.9487337 53.0877328))",,,POINT (49.94902634807523 53.08769947257406),53.08769947257406,49.94902634807523,"ulitsa Mironova, 28А, Novokuybyshevsk"
113,876,,"POLYGON ((49.948762 53.0886247, 49.9491208 53.08864, 49.949138 53.0884943, 49.9487792 53.088479, 49.948762 53.0886247))",,,POINT (49.948949999999996 53.08855950000001),53.08855950000001,49.94895,"ulitsa Mironova, 26К1, Novokuybyshevsk"
114,879,,"POLYGON ((49.9422311 53.0912134, 49.9424181 53.0912423, 49.9424663 53.0911299, 49.9422793 53.091101, 49.9422311 53.0912134))",,,POINT (49.942348700000004 53.09117165),53.09117165,49.9423487,"ulitsa Gagarina, 1А, Novokuybyshevsk"
115,883,,"POLYGON ((49.9441312 53.0924103, 49.9443017 53.0924196, 49.944342 53.0921533, 49.9441716 53.092144, 49.9441312 53.0924103))",,,POINT (49.944236622754815 53.09228181289695),53.09228181289695,49.944236622754815,"ulitsa Repina, 7, Novokuybyshevsk"
116,884,,"POLYGON ((49.9395202 53.0934283, 49.93951 53.0935221, 49.9403999 53.0935569, 49.94041 53.093463, 49.9395202 53.0934283))",,,POINT (49.939960100503676 53.093492578922486),53.093492578922486,49.93996010050368,"ulitsa Kirova, 8Г, Novokuybyshevsk"
117,912,,"POLYGON ((49.9372993 53.1164365, 49.9374424 53.1164203, 49.9373896 53.1162521, 49.9372466 53.1162683, 49.9372993 53.1164365))",,,POINT (49.93734447874263 53.116344309374604),53.11634430937461,49.93734447874263,"ulitsa Mira, 52, Novokuybyshevsk"
118,929,,"POLYGON ((49.9673729 53.091847, 49.9675325 53.0917894, 49.9671521 53.0914092, 49.9669925 53.0914668, 49.9673729 53.091847))",,,POINT (49.967262500000004 53.0916281),53.0916281,49.9672625,"ulitsa Zoi Kosmodem'yanskoy, 6А, Novokuybyshevsk"
119,935,,"POLYGON ((49.9711494 53.0910403, 49.9712235 53.0910159, 49.9710873 53.0908669, 49.9710132 53.0908914, 49.9711494 53.0910403))",,,POINT (49.97111834242513 53.09095361218227),53.09095361218227,49.97111834242513,"ulitsa Zoi Kosmodem'yanskoy, 14, Novokuybyshevsk"
120,943,,"POLYGON ((49.9343978 53.1140215, 49.9346759 53.1139912, 49.9346566 53.1139275, 49.9343786 53.1139579, 49.9343978 53.1140215))",,,POINT (49.93452726447633 53.11397452202174),53.11397452202174,49.93452726447633,"prospekt Mira, 14, Novokuybyshevsk"
121,944,,"POLYGON ((49.9359775 53.1138135, 49.9363935 53.113774, 49.9363644 53.1136639, 49.9359485 53.1137034, 49.9359775 53.1138135))",,,POINT (49.9361709784844 53.1137387018749),53.1137387018749,49.9361709784844,"ulitsa Mira, 8А, Novokuybyshevsk"
122,947,,"POLYGON ((49.9289187 53.1167729, 49.9290578 53.1167402, 49.9290304 53.1166982, 49.9290832 53.1166858, 49.928989 53.1165415, 49.9289398 53.1165531, 49.9288887 53.1164748, 49.9287434 53.116509, 49.9287612 53.1165363, 49.9286845 53.1165543, 49.9287461 53.1166488, 49.9288256 53.1166301, 49.9289187 53.1167729))",,,POINT (49.92889640634082 53.116618301021596),53.1166183010216,49.92889640634082,"Stakhanovskiy pereulok, 13А, Novokuybyshevsk"
123,950,,"POLYGON ((49.9278563 53.1114753, 49.9279997 53.111528, 49.9281292 53.1114012, 49.9279857 53.1113484, 49.9278563 53.1114753))",,,POINT (49.927992731715634 53.11143821258046),53.11143821258046,49.927992731715634,"ulitsa Osipenko, 10К1, Novokuybyshevsk"
124,951,,"POLYGON ((49.927643 53.1117004, 49.9277753 53.1117478, 49.9279054 53.111617, 49.9277732 53.1115696, 49.927643 53.1117004))",,,POINT (49.927774216728864 53.1116587052775),53.1116587052775,49.927774216728864,"ulitsa Osipenko, 8, Novokuybyshevsk"
125,953,,"POLYGON ((49.9335678 53.1139286, 49.9339126 53.113897, 49.9338882 53.1138012, 49.9335602 53.1138313, 49.9335534 53.1138044, 49.933287 53.1138289, 49.933281 53.1138051, 49.9330058 53.1138304, 49.9330382 53.1139574, 49.9335629 53.1139092, 49.9335678 53.1139286))",,,POINT (49.933433333556266 53.113871882715706),53.113871882715706,49.933433333556266,"ulitsa Mira, 18А, Novokuybyshevsk"
126,957,,"POLYGON ((49.9368241 53.1139328, 49.9369354 53.113921, 49.9368519 53.1136369, 49.9366888 53.1136541, 49.9367034 53.113704, 49.9367553 53.1136985, 49.9368241 53.1139328))",,,POINT (49.936829242340124 53.11377663745145),53.11377663745145,49.93682924234013,"prospekt Mira, 6ZH, Novokuybyshevsk"
127,959,,"POLYGON ((49.9415527 53.1138314, 49.9416983 53.1138724, 49.9417485 53.1138082, 49.9416029 53.1137672, 49.9415527 53.1138314))",,,POINT (49.94165059999999 53.1138198),53.1138198,49.94165059999999,"Odesskaya ulitsa, 2, Novokuybyshevsk"
128,961,,"POLYGON ((49.9221379 53.1187399, 49.922559 53.1188961, 49.9226628 53.1187952, 49.9222418 53.1186391, 49.9221379 53.1187399))",,,POINT (49.92240038782088 53.11876758380611),53.11876758380611,49.92240038782088,"Molodogvardeyskaya ulitsa, 28А, Novokuybyshevsk"
129,980,,"POLYGON ((49.9829607 53.1022724, 49.9831858 53.1021509, 49.9831215 53.102108, 49.9828964 53.1022295, 49.9829607 53.1022724))",,,POINT (49.9830411 53.102190199999995),53.1021902,49.9830411,"Zheleznodorozhnaya ulitsa, 9А, Novokuybyshevsk"
130,989,,"POLYGON ((49.9674623 53.1001946, 49.9675932 53.1001465, 49.9677122 53.1002635, 49.9677016 53.10029, 49.9677512 53.1002972, 49.967734 53.1003404, 49.9676814 53.1003329, 49.9676588 53.1003894, 49.9675345 53.1004366, 49.9675543 53.1004554, 49.9674972 53.1004771, 49.9674695 53.1004509, 49.9674057 53.1004524, 49.9673812 53.1004293, 49.9673475 53.1004421, 49.9673157 53.1004121, 49.9673277 53.1003772, 49.9674529 53.1003294, 49.9675183 53.1003311, 49.9676104 53.1002965, 49.9675528 53.1002412, 49.9675038 53.1002354, 49.9674623 53.1001946))",,,POINT (49.96754603858147 53.1003280753296),53.1003280753296,49.96754603858147,"ulitsa Ostrovskogo, 30, Novokuybyshevsk"
131,992,,"POLYGON ((49.9716427 53.1015267, 49.9718853 53.1014275, 49.9717774 53.1013323, 49.9715347 53.1014314, 49.9716427 53.1015267))",,,POINT (49.971710004899144 53.101429483649625),53.101429483649625,49.97171000489914,"ulitsa Ostrovskogo, 32К4, Novokuybyshevsk"
132,994,,"POLYGON ((49.9741321 53.1013111, 49.974223 53.1013914, 49.974292 53.1013633, 49.9742011 53.1012829, 49.9741321 53.1013111))",,,POINT (49.97421204639864 53.10133716549099),53.10133716549099,49.97421204639864,"ulitsa Ostrovskogo, 36, Novokuybyshevsk"
133,1017,Депо,"POLYGON ((49.9760458 53.1049006, 49.9761035 53.1049796, 49.9769828 53.1047484, 49.9768966 53.1046303, 49.976698 53.1046825, 49.9766829 53.1046617, 49.9765556 53.1046952, 49.9765992 53.104755, 49.9760458 53.1049006))",,,POINT (49.976552856894884 53.104800479287206),53.104800479287206,49.97655285689488,"poselok 34 Massiv, 40, Novokuybyshevsk"
134,1026,,"POLYGON ((49.9735144 53.0989629, 49.9736125 53.0989267, 49.9735328 53.0988487, 49.9734346 53.0988848, 49.9735144 53.0989629))",,,POINT (49.97352356468883 53.098905778942076),53.09890577894208,49.97352356468883,"ulitsa Dzerzhinskogo, 35Б, Novokuybyshevsk"
135,1029,,"POLYGON ((49.9696174 53.100107, 49.9696701 53.1001554, 49.9698001 53.1001044, 49.9697473 53.100056, 49.9696174 53.100107))",,,POINT (49.96970873351961 53.100105699760164),53.10010569976016,49.96970873351961,"ulitsa Ostrovskogo, 32К6, Novokuybyshevsk"
136,1030,,"POLYGON ((49.9707442 53.1005151, 49.9707965 53.1005657, 49.9708208 53.1005567, 49.970857 53.1005917, 49.9709586 53.1005538, 49.9708702 53.1004682, 49.9707442 53.1005151))",,,POINT (49.97085353146207 53.10053067585849),53.10053067585849,49.97085353146207,"ulitsa Ostrovskogo, 32К7, Novokuybyshevsk"
137,1031,,"POLYGON ((49.9713606 53.0999173, 49.9714589 53.099882, 49.9712787 53.0997011, 49.9711804 53.0997364, 49.9713606 53.0999173))",,,POINT (49.97131965000001 53.0998092),53.0998092,49.97131965000001,"ulitsa Ostrovskogo, 32К8, Novokuybyshevsk"
138,1032,,"POLYGON ((49.9710727 53.097594, 49.9711657 53.0975615, 49.9710918 53.0974853, 49.9709988 53.0975177, 49.9710727 53.097594))",,,POINT (49.97108224720054 53.09753963259867),53.09753963259867,49.97108224720054,"ulitsa Dzerzhinskogo, 33А, Novokuybyshevsk"
139,1033,,"POLYGON ((49.9425049 53.1152459, 49.942807 53.1151894, 49.9427505 53.1150804, 49.9424483 53.1151368, 49.9425049 53.1152459))",,,POINT (49.94262764933256 53.11516312834744),53.11516312834744,49.94262764933256,"Sadovaya ulitsa, 4Б, Novokuybyshevsk"
140,1041,,"POLYGON ((49.9328316 53.1153855, 49.9330614 53.1153617, 49.9330344 53.1152676, 49.9328045 53.1152914, 49.9328316 53.1153855))",,,POINT (49.93293297200087 53.115326546898906),53.115326546898906,49.93293297200087,"ulitsa Mira, 7, Novokuybyshevsk"
141,1047,,"POLYGON ((49.933513 53.1154132, 49.9336917 53.1153942, 49.9336279 53.1151786, 49.9334492 53.1151976, 49.933513 53.1154132))",,,POINT (49.93357045 53.11529589999999),53.11529589999999,49.93357045,"ulitsa Mira, 4, Novokuybyshevsk"
142,1052,,"POLYGON ((49.9351074 53.1165665, 49.9352861 53.1165475, 49.9352223 53.1163319, 49.9350436 53.1163509, 49.9351074 53.1165665))",проспект Мира,,POINT (49.93516485 53.11644920000001),53.11644920000001,49.93516485,"ulitsa Mira, 18В, Novokuybyshevsk"
143,1053,,"POLYGON ((49.9352037 53.1167843, 49.9351624 53.116682, 49.9347238 53.1167458, 49.9347651 53.1168481, 49.9352037 53.1167843))",,,POINT (49.93496375 53.116765050000005),53.116765050000005,49.93496375,"Sadovaya ulitsa, 8В, Novokuybyshevsk"
144,1054,,"POLYGON ((49.9363748 53.1157198, 49.9363947 53.115788, 49.936597 53.1157668, 49.936553 53.1156155, 49.9365921 53.1156114, 49.9365707 53.1155379, 49.9363301 53.1155631, 49.9363526 53.1156403, 49.9364082 53.1156345, 49.9364313 53.1157139, 49.9363748 53.1157198))",,,POINT (49.93647712585642 53.11565805387732),53.11565805387732,49.93647712585642,"prospekt Mira, 33, Novokuybyshevsk"
145,1055,,"POLYGON ((49.9390881 53.1147566, 49.9390653 53.1146703, 49.9387837 53.1146972, 49.9388066 53.1147835, 49.9390881 53.1147566))",,,POINT (49.93893592180694 53.114726897750764),53.11472689775077,49.93893592180694,"ulitsa Mira, 40, Novokuybyshevsk"
146,1120,,"POLYGON ((49.9604022 53.0962494, 49.9606749 53.0961465, 49.9606279 53.0961016, 49.9603552 53.0962045, 49.9604022 53.0962494))",,,POINT (49.96051505000001 53.0961755),53.0961755,49.96051505000001,"ulitsa Ostrovskogo, 13А, Novokuybyshevsk"
147,1123,,"POLYGON ((49.9586394 53.097384, 49.9588195 53.0973168, 49.9584253 53.0969355, 49.9582452 53.0970027, 49.9586394 53.097384))",,,POINT (49.95853235 53.097159749999996),53.09715975,49.95853235,"Leningradskaya ulitsa, 20А, Novokuybyshevsk"
148,1124,,"POLYGON ((49.9590998 53.0971973, 49.9593809 53.0970925, 49.9592765 53.0969916, 49.9589954 53.0970964, 49.9590998 53.0971973))",,,POINT (49.95918815 53.09709445),53.09709445,49.95918815,"Leningradskaya ulitsa, 20Б, Novokuybyshevsk"
149,1163,,"POLYGON ((49.9714943 53.1054077, 49.9721609 53.1056202, 49.9722166 53.1055572, 49.9717207 53.1053991, 49.9717607 53.1053538, 49.97159 53.1052994, 49.9714943 53.1054077))",,,POINT (49.97182433715986 53.10546173846669),53.10546173846669,49.97182433715986,"ulitsa Dobrolyubova, 2, Novokuybyshevsk"
150,1265,,"POLYGON ((49.9655247 53.1065318, 49.9656471 53.1065709, 49.9657139 53.1064958, 49.9655915 53.1064566, 49.9655247 53.1065318))",,,POINT (49.9656192925795 53.10651376807861),53.10651376807861,49.9656192925795,"ulitsa Dekabristov, 39А, Novokuybyshevsk"
151,1268,,"POLYGON ((49.9635296 53.1040353, 49.9636985 53.1038345, 49.9635084 53.1037769, 49.9633395 53.1039777, 49.9635296 53.1040353))",,,POINT (49.963519 53.103906099999996),53.1039061,49.963519,"Volzhskaya ulitsa, 21, Novokuybyshevsk"
152,1404,,"POLYGON ((49.958102 53.1077651, 49.9573347 53.106548, 49.9574142 53.1065299, 49.9581815 53.1077471, 49.958102 53.1077651))",,,POINT (49.95775805612119 53.10714745453265),53.10714745453265,49.95775805612119,"Samarskaya ulitsa, 7А, Novokuybyshevsk"
153,1411,,"POLYGON ((49.9625403 53.1098765, 49.9626626 53.1099157, 49.9627294 53.1098406, 49.9626071 53.1098014, 49.9625403 53.1098765))",,,POINT (49.96263485 53.109858550000006),53.109858550000006,49.96263485,"ulitsa Dekabristov, 7, Novokuybyshevsk"
154,1412,,"POLYGON ((49.9623539 53.1100792, 49.9624762 53.1101184, 49.962543 53.1100433, 49.9624207 53.1100041, 49.9623539 53.1100792))",,,POINT (49.96244845 53.110061249999994),53.11006125,49.96244845,"ulitsa Dekabristov, 3, Novokuybyshevsk"
155,1461,,"POLYGON ((49.9589046 53.1071641, 49.9589661 53.1072383, 49.9590925 53.1072005, 49.959031 53.1071263, 49.9589046 53.1071641))",,,POINT (49.95899854999999 53.1071823),53.1071823,49.95899854999999,"Samarskaya ulitsa, 5, Novokuybyshevsk"
156,1465,,"POLYGON ((49.9575363 53.1064654, 49.9578931 53.1070204, 49.9579924 53.1069974, 49.9577276 53.1065856, 49.9578047 53.1065678, 49.9577126 53.1064245, 49.9575363 53.1064654))",,,POINT (49.957756960523135 53.106693631269486),53.106693631269486,49.957756960523135,"Samarskaya ulitsa, 15, Novokuybyshevsk"
157,1466,,"POLYGON ((49.9604788 53.1072263, 49.9605179 53.1071872, 49.9597721 53.1069186, 49.959733 53.1069577, 49.9604788 53.1072263))",,,POINT (49.96012545 53.107072450000004),53.10707245,49.96012545,"Samarskaya ulitsa, 10, Novokuybyshevsk"
158,1467,,"POLYGON ((49.9597093 53.1069334, 49.9597667 53.1069117, 49.9593537 53.1065175, 49.9592962 53.1065391, 49.9597093 53.1069334))",,,POINT (49.95953147584963 53.10672542740683),53.10672542740683,49.95953147584963,"Samarskaya ulitsa, 7, Novokuybyshevsk"
159,1469,,"POLYGON ((49.9590115 53.1058286, 49.9590735 53.1058194, 49.9588018 53.1051635, 49.9587398 53.1051727, 49.9590115 53.1058286))",,,POINT (49.958906649999996 53.10549605),53.10549605,49.95890665,"ulitsa Klary Tsetkin, 26, Novokuybyshevsk"
160,1470,,"POLYGON ((49.9596448 53.1071361, 49.9604954 53.107441, 49.960601 53.1073349, 49.9597504 53.10703, 49.9596448 53.1071361))",,,POINT (49.960122899999995 53.107235499999994),53.1072355,49.9601229,"Volzhskaya ulitsa, 15, Novokuybyshevsk"
161,1471,,"POLYGON ((49.9586466 53.1085115, 49.9587346 53.1085097, 49.9587144 53.1081709, 49.9586265 53.1081728, 49.9586466 53.1085115))",,,POINT (49.95868052899976 53.10834125510348),53.10834125510348,49.95868052899976,"Samarskaya ulitsa, 2, Novokuybyshevsk"
162,1472,,"POLYGON ((49.9580867 53.1088544, 49.958651 53.1085858, 49.9585897 53.1085393, 49.9580253 53.1088079, 49.9580867 53.1088544))",,,POINT (49.95833814487478 53.10869686365134),53.10869686365134,49.95833814487478,"Volzhskaya ulitsa, 3-А, Novokuybyshevsk"
163,1476,,"POLYGON ((49.9606694 53.1084216, 49.9607917 53.1084608, 49.9608585 53.1083857, 49.9607362 53.1083465, 49.9606694 53.1084216))",,,POINT (49.96076395 53.10840365),53.10840365,49.96076395,"Oktyabr'skaya ulitsa, 20, Novokuybyshevsk"
164,1479,,"POLYGON ((49.9604961 53.1086103, 49.9606184 53.1086495, 49.9606852 53.1085744, 49.9605629 53.1085352, 49.9604961 53.1086103))",,,POINT (49.96059065 53.108592349999995),53.10859235,49.96059065,"Oktyabr'skaya ulitsa, 18, Novokuybyshevsk"
165,1495,,"POLYGON ((49.9599196 53.1099364, 49.9600419 53.1099756, 49.9601087 53.1099005, 49.9599864 53.1098613, 49.9599196 53.1099364))",,,POINT (49.96001414999999 53.109918449999995),53.10991845,49.96001414999999,"Oktyabr'skaya ulitsa, 15, Novokuybyshevsk"
166,1496,,"POLYGON ((49.9600527 53.1097791, 49.960175 53.1098183, 49.9602418 53.1097432, 49.9601195 53.109704, 49.9600527 53.1097791))",,,POINT (49.96014725 53.10976115),53.10976115,49.96014725,"Oktyabr'skaya ulitsa, 17, Novokuybyshevsk"
167,1499,,"POLYGON ((49.9605041 53.1092854, 49.9606264 53.1093246, 49.9606932 53.1092495, 49.9605709 53.1092103, 49.9605041 53.1092854))",,,POINT (49.96059865 53.10926745),53.10926745,49.96059865,"Oktyabr'skaya ulitsa, 21, Novokuybyshevsk"
168,1540,,"POLYGON ((49.9491614 53.1108244, 49.9492109 53.1109021, 49.9493433 53.1108717, 49.9492938 53.110794, 49.9491614 53.1108244))",,,POINT (49.94925235 53.110848049999994),53.11084805,49.94925235,"ulitsa Yegorova, 35A, Novokuybyshevsk"
169,1550,,"POLYGON ((49.9497261 53.1114832, 49.9497756 53.1115609, 49.9499081 53.1115305, 49.9498586 53.1114528, 49.9497261 53.1114832))",,,POINT (49.9498171 53.11150684999999),53.11150684999999,49.9498171,"ulitsa Timiryazeva, 36, Novokuybyshevsk"
170,1552,,"POLYGON ((49.9502647 53.1113555, 49.9503142 53.1114332, 49.9504466 53.1114028, 49.9503971 53.1113251, 49.9502647 53.1113555))",,,POINT (49.95035565 53.11137915),53.11137915,49.95035565,"ulitsa Timiryazeva, 34А, Novokuybyshevsk"
171,1554,,"POLYGON ((49.9509419 53.1111948, 49.9509914 53.1112725, 49.9511238 53.1112421, 49.9510743 53.1111644, 49.9509419 53.1111948))",,,POINT (49.95103285 53.11121845),53.11121845,49.95103285,"ulitsa Timiryazeva, 30, Novokuybyshevsk"
172,1555,,"POLYGON ((49.9515836 53.1110361, 49.9516331 53.1111138, 49.9517656 53.1110834, 49.9517161 53.1110057, 49.9515836 53.1110361))",,,POINT (49.951674600000004 53.11105975),53.11105975,49.9516746,"ulitsa Timiryazeva, 26, Novokuybyshevsk"
173,1557,,"POLYGON ((49.9524447 53.1108309, 49.9524942 53.1109086, 49.9526266 53.1108782, 49.9525771 53.1108005, 49.9524447 53.1108309))",,,POINT (49.95253565 53.11085455),53.11085455,49.95253565,"ulitsa Timiryazeva, 20А, Novokuybyshevsk"
174,1566,,"POLYGON ((49.9505628 53.1115547, 49.9506123 53.1116325, 49.9507448 53.1116021, 49.9506953 53.1115243, 49.9505628 53.1115547))",,,POINT (49.950653800000005 53.1115784),53.1115784,49.950653800000005,"ulitsa Timiryazeva, 35, Novokuybyshevsk"
175,1567,,"POLYGON ((49.9502868 53.1116182, 49.9503363 53.111696, 49.9504687 53.1116656, 49.9504192 53.1115878, 49.9502868 53.1116182))",,,POINT (49.95037775000001 53.11164190000001),53.11164190000001,49.95037775000001,"ulitsa Timiryazeva, 37, Novokuybyshevsk"
176,1574,,"POLYGON ((49.9539856 53.1096605, 49.9540396 53.1097372, 49.9541701 53.109704, 49.9541161 53.1096274, 49.9539856 53.1096605))",,,POINT (49.95407784002633 53.109682280981815),53.109682280981815,49.95407784002633,"Pervomayskaya ulitsa, 11, Novokuybyshevsk"
177,1597,,"POLYGON ((49.9518027 53.1120711, 49.9518522 53.1121488, 49.9519846 53.1121184, 49.9519351 53.1120407, 49.9518027 53.1120711))",,,POINT (49.95189365 53.112094750000004),53.11209475,49.95189365,"ulitsa Chkalova, 32Б, Novokuybyshevsk"
178,1599,,"POLYGON ((49.9507869 53.112315, 49.9508364 53.1123927, 49.9509688 53.1123623, 49.9509193 53.1122846, 49.9507869 53.112315))",,,POINT (49.95087785 53.11233865),53.11233865,49.95087785,"ulitsa Chkalova, 34Б, Novokuybyshevsk"
179,1602,,"POLYGON ((49.9498093 53.1128305, 49.9498588 53.1129083, 49.9499912 53.1128779, 49.9499417 53.1128001, 49.9498093 53.1128305))",,,POINT (49.94990025 53.1128542),53.1128542,49.94990025,"ulitsa Chkalova, 37, Novokuybyshevsk"
180,1613,,"POLYGON ((49.9554622 53.1114588, 49.9555117 53.1115365, 49.9556441 53.1115061, 49.9555946 53.1114284, 49.9554622 53.1114588))",,,POINT (49.95555315000001 53.111482450000004),53.11148245,49.95555315000001,"ulitsa Chkalova, 13, Novokuybyshevsk"
181,1617,,"POLYGON ((49.9559528 53.1113399, 49.9560023 53.1114176, 49.9561347 53.1113872, 49.9560852 53.1113095, 49.9559528 53.1113399))",,,POINT (49.95604375 53.11136355000001),53.11136355000001,49.95604375,"ulitsa Chkalova, 9, Novokuybyshevsk"
182,1619,,"POLYGON ((49.9551842 53.1115275, 49.9552337 53.1116052, 49.9553661 53.1115748, 49.9553166 53.1114971, 49.9551842 53.1115275))",,,POINT (49.955275150000006 53.111551150000004),53.11155115,49.955275150000006,"ulitsa Chkalova, 15А, Novokuybyshevsk"
183,1623,,"POLYGON ((49.955131 53.1112688, 49.9551805 53.1113465, 49.9553129 53.1113161, 49.9552634 53.1112384, 49.955131 53.1112688))",,,POINT (49.95522195 53.11129245),53.11129245,49.95522195,"ulitsa Chkalova, 12, Novokuybyshevsk"
184,1624,,"POLYGON ((49.9556598 53.1111391, 49.9557094 53.1112168, 49.9558418 53.1111864, 49.9557923 53.1111087, 49.9556598 53.1111391))",,,POINT (49.955750819436396 53.11116274638832),53.11116274638832,49.9557508194364,"ulitsa Chkalova, 10А, Novokuybyshevsk"
185,1630,,"POLYGON ((49.9512301 53.1141803, 49.9513291 53.1141592, 49.9512956 53.1141023, 49.9511965 53.1141234, 49.9512301 53.1141803))",,,POINT (49.951262819746944 53.114141296331894),53.11414129633189,49.951262819746944,"Sadovo-Dachnaya ulitsa, 39, Novokuybyshevsk"
186,1631,,"POLYGON ((49.9515503 53.1141249, 49.9516308 53.1141051, 49.951599 53.1140585, 49.9515185 53.1140783, 49.9515503 53.1141249))",,,POINT (49.95157464999999 53.114091699999996),53.1140917,49.95157464999999,"Sadovo-Dachnaya ulitsa, 37А, Novokuybyshevsk"
187,1638,,"POLYGON ((49.9521996 53.1135904, 49.9522512 53.1136676, 49.9523828 53.1136359, 49.9523312 53.1135587, 49.9521996 53.1135904))",,,POINT (49.952291200000005 53.11361315),53.11361315,49.952291200000005,"Sadovo-Dachnaya ulitsa, 35, Novokuybyshevsk"
188,1657,,"POLYGON ((49.9560884 53.1122461, 49.9561392 53.1123235, 49.9562711 53.1122922, 49.9562203 53.1122149, 49.9560884 53.1122461))",,,POINT (49.95617973952714 53.11226918069075),53.11226918069075,49.95617973952714,"Sadovo-Dachnaya ulitsa, 16, Novokuybyshevsk"
189,1658,,"POLYGON ((49.9563064 53.1121953, 49.9563573 53.1122727, 49.9564892 53.1122415, 49.9564383 53.1121641, 49.9563064 53.1121953))",,,POINT (49.9563978 53.1122184),53.1122184,49.9563978,"Sadovo-Dachnaya ulitsa, 12А, Novokuybyshevsk"
190,1659,,"POLYGON ((49.957248 53.1119724, 49.9572988 53.1120497, 49.9574307 53.1120185, 49.9573799 53.1119411, 49.957248 53.1119724))",,,POINT (49.957339360472865 53.11199541930924),53.11199541930924,49.95733936047287,"Sadovo-Dachnaya ulitsa, 8, Novokuybyshevsk"
191,1668,,"POLYGON ((49.9415079 53.1023967, 49.9417054 53.1023266, 49.9415021 53.10212, 49.9413046 53.10219, 49.9415079 53.1023967))",,,POINT (49.941505000351874 53.102258333453264),53.102258333453264,49.941505000351874,"ulitsa 50 let NPZ, 1Б, Novokuybyshevsk"
192,1672,,"POLYGON ((49.9412848 53.1107947, 49.9407802 53.1099482, 49.9408679 53.1099294, 49.9413724 53.1107759, 49.9412848 53.1107947))",,,POINT (49.94107628230333 53.110361978676906),53.110361978676906,49.94107628230333,"ulitsa Michurina, 21А, Novokuybyshevsk"
193,1676,,"POLYGON ((49.9570096 53.1062394, 49.9575142 53.1060463, 49.9574605 53.1059957, 49.9569558 53.1061888, 49.9570096 53.1062394))",,,POINT (49.95723500175779 53.10611755805786),53.10611755805786,49.95723500175779,"ulitsa Bocharikova, 1, Novokuybyshevsk"
194,1678,,"POLYGON ((49.9570699 53.1055911, 49.9571564 53.1055623, 49.9566844 53.1050509, 49.9565979 53.1050797, 49.9570699 53.1055911))",,,POINT (49.95687715 53.105321),53.105321,49.95687715,"ulitsa Bocharikova, 5, Novokuybyshevsk"
195,1679,,"POLYGON ((49.9574241 53.1058096, 49.9576034 53.1057992, 49.9575031 53.105176, 49.9573238 53.1051864, 49.9574241 53.1058096))",,,POINT (49.957463600000004 53.10549279999999),53.10549279999999,49.9574636,"ulitsa Bocharikova, 3, Novokuybyshevsk"
196,1691,,"POLYGON ((49.9647309 53.0822566, 49.9645684 53.0821986, 49.963976 53.0827966, 49.9641385 53.0828546, 49.9647309 53.0822566))",,,POINT (49.96435345000001 53.0825266),53.0825266,49.96435345000001,"Minskaya ulitsa, 29, Novokuybyshevsk"
197,1692,,"POLYGON ((49.9644707 53.0821621, 49.9643082 53.0821041, 49.9637158 53.0827021, 49.9638783 53.0827601, 49.9644707 53.0821621))",,,POINT (49.964093250000005 53.082432100000005),53.082432100000005,49.964093250000005,"Shirokaya ulitsa, 54, Novokuybyshevsk"
198,1694,,"POLYGON ((49.9626618 53.0820408, 49.9625679 53.0821354, 49.9633389 53.0824117, 49.9634329 53.0823171, 49.9626618 53.0820408))",,,POINT (49.96300039369982 53.08222625567853),53.08222625567853,49.96300039369982,"Shirokaya ulitsa, 17, Novokuybyshevsk"
199,1695,,"POLYGON ((49.9628513 53.0820287, 49.9635063 53.0822659, 49.9635547 53.0822178, 49.9628997 53.0819805, 49.9628513 53.0820287))",,,POINT (49.96320291735026 53.082123194447355),53.08212319444736,49.96320291735026,"Minskaya ulitsa, 5, Novokuybyshevsk"
200,1815,,"POLYGON ((49.9654686 53.0844124, 49.9655868 53.0844559, 49.9656608 53.0843832, 49.9655425 53.0843398, 49.9654686 53.0844124))",Чернореченская улица,,POINT (49.96556468843112 53.08439783002677),53.08439783002677,49.96556468843112,"Chernorechenskaya ulitsa, 41, Novokuybyshevsk"
201,1897,,"POLYGON ((49.9624339 53.0815822, 49.9625522 53.0816256, 49.9626261 53.081553, 49.9625079 53.0815095, 49.9624339 53.0815822))",,,POINT (49.96253001156888 53.08156756997323),53.08156756997323,49.96253001156888,"Minskaya ulitsa, 12, Novokuybyshevsk"
202,1898,,"POLYGON ((49.9627632 53.0816391, 49.9631002 53.0817609, 49.96316 53.0817012, 49.962823 53.0815794, 49.9627632 53.0816391))",,,POINT (49.9629616 53.08167015),53.08167015,49.9629616,"Minskaya ulitsa, 14, Novokuybyshevsk"
203,1974,,"POLYGON ((49.9663151 53.0845875, 49.9663982 53.0845676, 49.966533 53.0847514, 49.9667595 53.0849408, 49.9671208 53.0851473, 49.9672054 53.085239, 49.9672188 53.0853938, 49.9671262 53.0853928, 49.9671144 53.0852501, 49.9670352 53.0851641, 49.9666965 53.0849738, 49.9664606 53.0847714, 49.9663151 53.0845875))",,,POINT (49.96680327774543 53.08498901390681),53.08498901390681,49.96680327774543,"Vishnevaya ulitsa, 50, Novokuybyshevsk"
204,1975,,"POLYGON ((49.9666186 53.0846745, 49.9667002 53.084635, 49.9674322 53.0851458, 49.9674875 53.0854099, 49.9677666 53.0855886, 49.9676823 53.0856376, 49.9673795 53.0854447, 49.9673216 53.0851711, 49.9666186 53.0846745))",,,POINT (49.96723754207034 53.08513727501476),53.08513727501476,49.96723754207034,"Chernorechenskaya ulitsa, 56, Novokuybyshevsk"
205,2081,,"POLYGON ((50.0036489 53.0899971, 50.0037873 53.0899929, 50.0037801 53.0899078, 50.0036418 53.089912, 50.0036489 53.0899971))",,,POINT (50.00371452583982 53.089952455100395),53.0899524551004,50.00371452583982,"Ural'skaya ulitsa, 2, Novokuybyshevsk"
206,2082,,"POLYGON ((50.0041404 53.0899522, 50.0042788 53.089948, 50.0042716 53.0898629, 50.0041332 53.0898671, 50.0041404 53.0899522))",,,POINT (50.004205999999996 53.08990755),53.08990755,50.004206,"Ural'skaya ulitsa, 4, Novokuybyshevsk"
207,2083,,"POLYGON ((50.0046754 53.089913, 50.0048138 53.0899088, 50.0048066 53.0898237, 50.0046683 53.0898279, 50.0046754 53.089913))",,,POINT (50.00474102583981 53.0898683551004),53.0898683551004,50.00474102583981,"Ural'skaya ulitsa, 8, Novokuybyshevsk"
208,2086,,"POLYGON ((50.0055464 53.089842, 50.0056848 53.0898378, 50.0056776 53.0897527, 50.0055393 53.0897569, 50.0055464 53.089842))",,,POINT (50.00561202583981 53.089797355100394),53.0897973551004,50.00561202583981,"Ural'skaya ulitsa, 14, Novokuybyshevsk"
209,2090,,"POLYGON ((50.0058137 53.0894266, 50.0059521 53.0894224, 50.0059449 53.0893373, 50.0058066 53.0893415, 50.0058137 53.0894266))",,,POINT (50.00587932583981 53.08938195510039),53.08938195510039,50.00587932583981,"Yaroslavskaya ulitsa, 15, Novokuybyshevsk"
210,2101,,"POLYGON ((50.0077952 53.0914959, 50.0079335 53.0914917, 50.0079264 53.0914066, 50.007788 53.0914108, 50.0077952 53.0914959))",,,POINT (50.007860774160186 53.091451244899595),53.0914512448996,50.007860774160186,"Severnaya ulitsa, 18А, Novokuybyshevsk"
211,2104,,"POLYGON ((50.0106578 53.0914058, 50.0107961 53.0914016, 50.010789 53.0913165, 50.0106506 53.0913207, 50.0106578 53.0914058))",,,POINT (50.010723374160186 53.091361144899594),53.0913611448996,50.010723374160186,"Severnaya ulitsa, 22, Novokuybyshevsk"
212,2109,,"POLYGON ((50.0131694 53.091215, 50.0133078 53.0912108, 50.0133006 53.0911257, 50.0131622 53.0911299, 50.0131694 53.091215))",,,POINT (50.013235 53.09117034999999),53.09117034999999,50.013235,"Severnaya ulitsa, 38, Novokuybyshevsk"
213,2111,,"POLYGON ((50.0144917 53.0910929, 50.01463 53.0910887, 50.0146228 53.0910036, 50.0144845 53.0910078, 50.0144917 53.0910929))",,,POINT (50.01455725 53.09104825),53.09104825,50.01455725,"Severnaya ulitsa, 44, Novokuybyshevsk"
214,2116,,"POLYGON ((50.0152615 53.0906796, 50.0153999 53.0906753, 50.0153927 53.0905903, 50.0152544 53.0905945, 50.0152615 53.0906796))",,,POINT (50.0153271123602 53.09063493094183),53.09063493094183,50.0153271123602,"Voronezhskaya ulitsa, 45, Novokuybyshevsk"
215,2118,,"POLYGON ((50.0130569 53.0906329, 50.0131952 53.0906286, 50.0131881 53.0905436, 50.0130497 53.0905478, 50.0130569 53.0906329))",,,POINT (50.013122460670374 53.09058822074799),53.09058822074799,50.01312246067037,"Voronezhskaya ulitsa, 26, Novokuybyshevsk"
216,2121,,"POLYGON ((50.0072845 53.0899217, 50.0074229 53.0899175, 50.0074157 53.0898324, 50.0072774 53.0898366, 50.0072845 53.0899217))",,,POINT (50.0073501258398 53.08987705510039),53.08987705510039,50.0073501258398,"Ural'skaya ulitsa, 19, Novokuybyshevsk"
217,2131,,"POLYGON ((49.9992916 53.0841919, 49.9998625 53.0841886, 49.9998606 53.084069, 49.9992897 53.0840723, 49.9992916 53.0841919))",,,POINT (49.999576100000006 53.08413045),53.08413045,49.999576100000006,"kvartal 100-y, 11, Novokuybyshevsk"
218,2134,,"POLYGON ((50.0002337 53.0842261, 50.0018682 53.0842308, 50.0018687 53.0841716, 50.0002341 53.0841669, 50.0002337 53.0842261))",,,POINT (50.00105117566388 53.08419884970009),53.08419884970009,50.00105117566388,"prospekt Pobedy, 60, Novokuybyshevsk"
219,2170,,"POLYGON ((49.948272 53.1044182, 49.9483627 53.1043843, 49.9482254 53.1042517, 49.9481346 53.1042856, 49.948272 53.1044182))",,,POINT (49.94824866437012 53.10433494179451),53.10433494179451,49.94824866437012,"ulitsa Gor'kogo, 29, Novokuybyshevsk"
220,2171,,"POLYGON ((49.9477818 53.1039217, 49.9478726 53.1038878, 49.9477353 53.1037553, 49.9476445 53.1037892, 49.9477818 53.1039217))",,,POINT (49.94775855 53.1038385),53.1038385,49.94775855,"Tsentral'nyy proyezd, 1, Novokuybyshevsk"
221,2172,,"POLYGON ((49.947269 53.1034296, 49.9473598 53.1033957, 49.9472225 53.1032631, 49.9471317 53.1032971, 49.947269 53.1034296))",,,POINT (49.94724574470626 53.10334636437836),53.10334636437836,49.94724574470626,"ulitsa Kutuzova, 3, Novokuybyshevsk"
222,2173,,"POLYGON ((49.9499116 53.1023557, 49.9498556 53.102301, 49.9496341 53.1023828, 49.9496901 53.1024375, 49.9499116 53.1023557))",,,POINT (49.949772849999995 53.10236925),53.10236925,49.94977285,"Kommunisticheskaya ulitsa, 24, Novokuybyshevsk"
223,2223,,"POLYGON ((49.9543239 53.1030541, 49.9543733 53.1029776, 49.9542243 53.102943, 49.954175 53.1030195, 49.9543239 53.1030541))",,,POINT (49.95427413067904 53.10299854703924),53.10299854703924,49.95427413067904,"ulitsa Mayakovskogo, 28, Novokuybyshevsk"
224,2227,,"POLYGON ((49.9555176 53.1008295, 49.9555638 53.10077, 49.9554497 53.1007381, 49.9554035 53.1007976, 49.9555176 53.1008295))",улица Белинского,,POINT (49.955483650000005 53.1007838),53.1007838,49.955483650000005,"prospekt Pobedy, 9, Novokuybyshevsk"
225,2228,,"POLYGON ((49.9559155 53.1008521, 49.9557158 53.1008065, 49.955664 53.1008881, 49.9558638 53.1009337, 49.9559155 53.1008521))",улица Белинского,,POINT (49.95578976904617 53.10087010204508),53.10087010204508,49.95578976904617,"prospekt Pobedy, 9A, Novokuybyshevsk"
226,2230,,"POLYGON ((49.9564996 53.1010706, 49.9565482 53.1009939, 49.956399 53.1009598, 49.9563504 53.1010365, 49.9564996 53.1010706))",улица Белинского,,POINT (49.95644930000001 53.10101520000001),53.10101520000001,49.95644930000001,"prospekt Pobedy, 13, Novokuybyshevsk"
227,2262,,"POLYGON ((49.9229072 53.1075285, 49.9227177 53.1074614, 49.9224365 53.1077474, 49.922626 53.1078145, 49.9229072 53.1075285))",,,POINT (49.92267185 53.107637950000004),53.10763795,49.92267185,"ulitsa 50 Let NPZ, 37, Novokuybyshevsk"
228,2264,,"POLYGON ((49.9256484 53.1090387, 49.9257986 53.1088951, 49.9257267 53.108868, 49.9257709 53.1088258, 49.9256195 53.1087687, 49.9255754 53.1088108, 49.9255559 53.1088034, 49.9254055 53.1089471, 49.9256484 53.1090387))",,,POINT (49.92561306106676 53.10890519062312),53.10890519062312,49.92561306106676,"ulitsa Mira, 10А, Novokuybyshevsk"
229,2265,,"POLYGON ((49.924149 53.1054675, 49.9247206 53.1056796, 49.924911 53.1054947, 49.9243395 53.1052825, 49.924149 53.1054675))",,,POINT (49.92452999951295 53.105481065459436),53.10548106545944,49.92452999951295,"ulitsa Osipenko, 15-Ж, Novokuybyshevsk"
230,2266,,"POLYGON ((49.9252163 53.1059388, 49.9254043 53.1060058, 49.9254703 53.105939, 49.9258752 53.1060833, 49.9260475 53.105909, 49.9254547 53.1056978, 49.9252163 53.1059388))",,,POINT (49.92563009939999 53.105895778365976),53.105895778365976,49.92563009939999,"ulitsa Osipenko, 15, Novokuybyshevsk"
231,2270,,"POLYGON ((49.9249885 53.1070394, 49.9251446 53.1068951, 49.9250189 53.1068461, 49.9248628 53.1069904, 49.9249885 53.1070394))",,,POINT (49.92500370000001 53.106942749999995),53.10694275,49.92500370000001,"ulitsa Osipenko, 12, Novokuybyshevsk"
232,2271,,"POLYGON ((49.924916 53.1063413, 49.9254347 53.1065284, 49.925335 53.106628, 49.9248164 53.1064409, 49.924916 53.1063413))",,,POINT (49.925125537679165 53.10648465297363),53.10648465297363,49.925125537679165,"ulitsa 50 let NPZ, 41, Novokuybyshevsk"
233,2272,,"POLYGON ((49.9229664 53.1062578, 49.92306 53.1061624, 49.9232423 53.1062269, 49.9234152 53.1060508, 49.9236431 53.1061314, 49.9235972 53.1061783, 49.9235427 53.106159, 49.9233222 53.1063837, 49.9229664 53.1062578))",,,POINT (49.923308656474866 53.106221015312784),53.106221015312784,49.92330865647487,"ulitsa Osipenko, 13К1, Novokuybyshevsk"
234,2273,,"POLYGON ((49.9237492 53.1062817, 49.9238439 53.1061933, 49.9236726 53.1061272, 49.9235779 53.1062155, 49.9237492 53.1062817))",,,POINT (49.92371090793488 53.10620443267109),53.10620443267109,49.92371090793488,"ulitsa Osipenko, 13К2, Novokuybyshevsk"
235,2280,,"POLYGON ((49.9265495 53.1067358, 49.9267418 53.1068106, 49.9268008 53.106756, 49.9266085 53.1066812, 49.9265495 53.1067358))",,,POINT (49.926675149999994 53.106745900000014),53.106745900000014,49.92667515,"ulitsa 50 let NPZ, 43, Novokuybyshevsk"
236,2283,,"POLYGON ((49.8920834 53.0879295, 49.8922558 53.0880909, 49.8922131 53.0881073, 49.8923348 53.0882213, 49.8925634 53.0881333, 49.8922694 53.0878579, 49.8920834 53.0879295))",,,POINT (49.89232097565383 53.08804219903776),53.08804219903776,49.89232097565383,"Promyshlennaya ulitsa, 36К4, Novokuybyshevsk"
237,2284,,"POLYGON ((49.8930724 53.0888287, 49.8929013 53.0886668, 49.8928585 53.0886831, 49.8927377 53.0885688, 49.892967 53.0884814, 49.8932589 53.0887576, 49.8930724 53.0888287))",,,POINT (49.89300233757828 53.08865181756166),53.08865181756166,49.89300233757828,"Promyshlennaya ulitsa, 36К8, Novokuybyshevsk"
238,2285,,"POLYGON ((49.8908027 53.0887314, 49.8910071 53.0889134, 49.8911459 53.0888572, 49.8909416 53.0886752, 49.8908027 53.0887314))",,,POINT (49.89097431479847 53.08879429320604),53.08879429320604,49.89097431479847,"Promyshlennaya ulitsa, 36К12, Novokuybyshevsk"
239,2287,,"POLYGON ((49.8918816 53.0891595, 49.8922911 53.0889912, 49.8921444 53.0888625, 49.891735 53.0890307, 49.8918816 53.0891595))",,,POINT (49.89201301871457 53.08901098318787),53.08901098318787,49.89201301871457,"Promyshlennaya ulitsa, 36К6, Novokuybyshevsk"
240,2288,Пожарная часть №56,"POLYGON ((49.8924851 53.0889481, 49.8927533 53.0888359, 49.8925911 53.088696, 49.8923229 53.0888082, 49.8924851 53.0889481))",,,POINT (49.892538099999996 53.08882205000001),53.08882205000001,49.8925381,"Promyshlennaya ulitsa, 36К7, Novokuybyshevsk"
241,2289,,"POLYGON ((49.8911412 53.0877177, 49.8912789 53.0878398, 49.8914445 53.0877725, 49.8913068 53.0876504, 49.8911412 53.0877177))",,,POINT (49.89129285 53.08774509999999),53.08774509999999,49.89129285,"Promyshlennaya ulitsa, 36К1, Novokuybyshevsk"
242,2290,,"POLYGON ((49.8916437 53.0875133, 49.8919675 53.0878055, 49.8921382 53.0877373, 49.8918144 53.0874451, 49.8916437 53.0875133))",,,POINT (49.89189094999999 53.0876253),53.0876253,49.89189094999999,"Promyshlennaya ulitsa, 36К2, Novokuybyshevsk"
243,2291,,"POLYGON ((49.8932017 53.0889265, 49.8933379 53.0890519, 49.8933008 53.0890664, 49.8933587 53.0891197, 49.8933987 53.0891041, 49.8935244 53.0892199, 49.8936955 53.0891528, 49.8935679 53.0890354, 49.8935998 53.0890229, 49.8935426 53.0889702, 49.8935066 53.0889843, 49.8933716 53.08886, 49.8932017 53.0889265))",,,POINT (49.893448254773055 53.08904058747301),53.08904058747301,49.893448254773055,"Promyshlennaya ulitsa, 36К9, Novokuybyshevsk"
244,2292,,"POLYGON ((49.8935501 53.0885768, 49.8937042 53.0887102, 49.8941787 53.0885125, 49.8940267 53.0883809, 49.8939259 53.0884229, 49.8939616 53.0884538, 49.8936873 53.0885681, 49.8936496 53.0885354, 49.8935501 53.0885768))",,,POINT (49.89387379039355 53.0885534265674),53.0885534265674,49.89387379039355,"Promyshlennaya ulitsa, 36К10, Novokuybyshevsk"
245,2294,,"POLYGON ((49.8913777 53.0885426, 49.8920152 53.0882801, 49.8918938 53.0881737, 49.8912562 53.0884362, 49.8913777 53.0885426))",,,POINT (49.891635709933944 53.08835815481243),53.08835815481243,49.89163570993394,"Promyshlennaya ulitsa, 36, Novokuybyshevsk"
246,2296,,"POLYGON ((49.8946528 53.0886672, 49.8953646 53.08921, 49.8955855 53.0891056, 49.8950438 53.0886924, 49.8949187 53.0887516, 49.8947486 53.0886219, 49.8946528 53.0886672))",,,POINT (49.89515403636017 53.08892223304764),53.08892223304764,49.89515403636017,"Promyshlennaya ulitsa, 34, Novokuybyshevsk"
247,2300,,"POLYGON ((49.892499 53.0874239, 49.8927776 53.0876695, 49.8934019 53.0874141, 49.8932453 53.0872759, 49.8929308 53.0874046, 49.892809 53.0872971, 49.892499 53.0874239))",,,POINT (49.89292882881901 53.08745642452197),53.08745642452197,49.89292882881901,"Promyshlennaya ulitsa, 36К11, Novokuybyshevsk"
248,2301,,"POLYGON ((49.8986669 53.089806, 49.8987537 53.0898427, 49.8989864 53.0896443, 49.8988995 53.0896076, 49.8986669 53.089806))",,,POINT (49.89882664095736 53.0897251377064),53.0897251377064,49.89882664095736,"Proizvodstvennaya ulitsa, 6, Novokuybyshevsk"
249,2305,,"POLYGON ((49.8947613 53.0885054, 49.8951392 53.0883054, 49.8950192 53.0882236, 49.8946413 53.0884236, 49.8947613 53.0885054))",,,POINT (49.89489025 53.088364500000004),53.0883645,49.89489025,"Promyshlennaya ulitsa, 34К1, Novokuybyshevsk"
250,2314,,"POLYGON ((49.9546905 53.1090444, 49.9546824 53.1088583, 49.9546198 53.1088593, 49.9546162 53.108778, 49.9548025 53.1087751, 49.9548043 53.1088161, 49.9548629 53.1088152, 49.9548654 53.1088727, 49.9549313 53.1088717, 49.9549408 53.1090883, 49.9548129 53.1090903, 49.9548108 53.1090424, 49.9546905 53.1090444))",,,POINT (49.95479380189759 53.10892808601614),53.10892808601614,49.95479380189759,"Pervomayskaya ulitsa, 10В, Novokuybyshevsk"
251,2315,,"POLYGON ((49.9953274 53.0877553, 49.9954146 53.0877229, 49.9953459 53.0876563, 49.9952587 53.0876887, 49.9953274 53.0877553))",,,POINT (49.99533664999999 53.087705799999995),53.0877058,49.99533664999999,"kvartal 96-y, 18, Novokuybyshevsk"
252,2336,,"POLYGON ((49.9387433 53.1108979, 49.9389925 53.1108514, 49.9389409 53.1107519, 49.9386917 53.1107984, 49.9387433 53.1108979))",,,POINT (49.93884209999999 53.11082489999999),53.11082489999999,49.93884209999999,"ulitsa Michurina, 21К1, Novokuybyshevsk"
253,2353,,"POLYGON ((49.9469754 53.0858977, 49.9471128 53.0857602, 49.9469296 53.0856942, 49.9467923 53.0858317, 49.9469754 53.0858977))",,,POINT (49.94695253253652 53.0857959464596),53.0857959464596,49.94695253253652,"Promyshlennaya ulitsa, 2, Novokuybyshevsk"
254,2354,,"POLYGON ((49.9462877 53.0858578, 49.9462227 53.0858398, 49.9461656 53.0858476, 49.9461374 53.0858613, 49.9461128 53.0858828, 49.9461065 53.0859061, 49.9461188 53.0859358, 49.9461569 53.0859595, 49.9462121 53.0859696, 49.9462712 53.0859587, 49.9463106 53.085933, 49.9463235 53.0859131, 49.9463182 53.0858857, 49.9462877 53.0858578))",,,POINT (49.94621422894736 53.085904809025344),53.085904809025344,49.94621422894736,"Promyshlennaya ulitsa, 2Б, Novokuybyshevsk"
255,2356,,"POLYGON ((49.9469017 53.0842723, 49.9473733 53.0844144, 49.9474741 53.0842938, 49.9470025 53.0841516, 49.9469017 53.0842723))",,,POINT (49.947187875167984 53.08428301573395),53.08428301573395,49.947187875167984,"ulitsa Kirova, 8БК1, Novokuybyshevsk"
256,2373,,"POLYGON ((50.006611 53.0897889, 50.0067494 53.0897847, 50.0067422 53.0896996, 50.0066039 53.0897038, 50.006611 53.0897889))",,,POINT (50.006676625839816 53.089744255100385),53.08974425510039,50.006676625839816,"Ural'skaya ulitsa, 20, Novokuybyshevsk"
257,2376,,"POLYGON ((50.0098682 53.0902859, 50.0100149 53.0902826, 50.0100071 53.0901585, 50.0098603 53.0901619, 50.0098682 53.0902859))",,,POINT (50.00993763414602 53.090222217301154),53.090222217301154,50.00993763414602,"Voronezhskaya ulitsa, 14А, Novokuybyshevsk"
258,2379,,"POLYGON ((50.016055 53.0907873, 50.0161934 53.0907831, 50.0161862 53.090698, 50.0160478 53.0907023, 50.016055 53.0907873))",,,POINT (50.01612061348889 53.09074267415225),53.09074267415225,50.01612061348889,"Voronezhskaya ulitsa, 49, Novokuybyshevsk"
259,2385,,"POLYGON ((50.0104361 53.0917761, 50.0105738 53.0917668, 50.0105582 53.0916822, 50.0104204 53.0916914, 50.0104361 53.0917761))",,,POINT (50.010497109943834 53.0917291218368),53.0917291218368,50.01049710994384,"Severnaya ulitsa, 19, Novokuybyshevsk"
260,2396,,"POLYGON ((49.9402208 53.0943164, 49.9402517 53.0941494, 49.9400808 53.094138, 49.9400499 53.094305, 49.9402208 53.0943164))",,,POINT (49.9401508 53.094227200000006),53.094227200000006,49.9401508,"ulitsa Kirova, 2БК3, Novokuybyshevsk"
261,2398,,"POLYGON ((49.9388178 53.0943563, 49.9386724 53.0943451, 49.9386508 53.0944463, 49.9389718 53.094471, 49.9390947 53.0938956, 49.9392919 53.0939108, 49.9393147 53.0938038, 49.9389422 53.093775, 49.9388178 53.0943563))",,,POINT (49.93896946563358 53.09411232253308),53.09411232253308,49.93896946563358,"poselok Zavodskoye Snp, 37, Novokuybyshevsk"
262,2406,,"POLYGON ((49.9323896 53.1156065, 49.9323458 53.1154433, 49.9321558 53.1154617, 49.9321996 53.1156249, 49.9323896 53.1156065))",,,POINT (49.9322727 53.11553409999999),53.11553409999999,49.9322727,"ulitsa Mira, 2Б, Novokuybyshevsk"
263,2412,,"POLYGON ((49.9291967 53.1142716, 49.9295924 53.1142312, 49.9295574 53.1141075, 49.9291617 53.114148, 49.9291967 53.1142716))",,,POINT (49.9293770757153 53.11418957163419),53.11418957163419,49.9293770757153,"Stakhanovskiy pereulok, 25, Novokuybyshevsk"
264,2414,,"POLYGON ((49.8994528 53.1136913, 49.9003672 53.1140236, 49.9005105 53.1138815, 49.8995962 53.1135492, 49.8994528 53.1136913))",,,POINT (49.89998165978446 53.11378639576534),53.11378639576534,49.89998165978446,"Vokzal'naya ulitsa, 45А, Novokuybyshevsk"
265,2416,,"POLYGON ((49.9048906 53.1164706, 49.9058245 53.1168075, 49.9058745 53.1167576, 49.9049405 53.1164207, 49.9048906 53.1164706))",,,POINT (49.90538256666391 53.116614114584024),53.11661411458402,49.90538256666391,"Vokzal'naya ulitsa, 13, Novokuybyshevsk"
266,2417,,"POLYGON ((49.9059123 53.1168207, 49.9073987 53.1173575, 49.9074518 53.1173045, 49.9059654 53.1167677, 49.9059123 53.1168207))",,,POINT (49.90668204999999 53.11706259999999),53.11706259999999,49.90668204999999,"Vokzal'naya ulitsa, 5, Novokuybyshevsk"
267,2418,,"POLYGON ((49.9033208 53.1158338, 49.9047853 53.1163627, 49.9048323 53.1163159, 49.9033677 53.1157869, 49.9033208 53.1158338))",,,POINT (49.904076403201124 53.1160747804763),53.1160747804763,49.90407640320112,"Vokzal'naya ulitsa, 13Ж, Novokuybyshevsk"
268,2420,,"POLYGON ((49.9021457 53.1152811, 49.9033515 53.1157074, 49.9034026 53.1156553, 49.9021968 53.115229, 49.9021457 53.1152811))",,,POINT (49.902774150000006 53.1154682),53.1154682,49.902774150000006,"Vokzal'naya ulitsa, 3, Novokuybyshevsk"
269,2424,,"POLYGON ((49.9080609 53.1176283, 49.908765 53.1178857, 49.9088206 53.1178309, 49.9081165 53.1175735, 49.9080609 53.1176283))",,,POINT (49.90844075 53.1177296),53.1177296,49.90844075,"Vokzal'naya ulitsa, Novokuybyshevsk, Samara 446205"
270,2425,,"POLYGON ((49.9082046 53.1174793, 49.9089153 53.11773, 49.9089695 53.1176747, 49.9082588 53.117424, 49.9082046 53.1174793))",,,POINT (49.90858704999998 53.117577000000004),53.117577,49.90858704999998,"ulitsa Chelyuskintsev, 6, Novokuybyshevsk"
271,2426,,"POLYGON ((49.9091855 53.1180086, 49.910035 53.1183079, 49.9100854 53.1182565, 49.9092358 53.1179571, 49.9091855 53.1180086))",,,POINT (49.90963535946125 53.118132500908004),53.118132500908,49.90963535946125,"ulitsa Chelyuskintsev, 9Б, Novokuybyshevsk"
272,2428,,"POLYGON ((49.9102379 53.1183507, 49.9115204 53.1188211, 49.911564 53.1187783, 49.9102815 53.1183079, 49.9102379 53.1183507))",,,POINT (49.91090094999998 53.11856449999999),53.11856449999999,49.91090094999998,"ulitsa Chelyuskintsev, 9А, Novokuybyshevsk"
273,2430,,"POLYGON ((49.9121122 53.1194715, 49.9123828 53.1194553, 49.9123477 53.1192448, 49.9120771 53.119261, 49.9121122 53.1194715))",,,POINT (49.91222995 53.11935815),53.11935815,49.91222995,"Vokzal'naya ulitsa, 9А, Novokuybyshevsk"
274,2432,,"POLYGON ((49.8972746 53.1128861, 49.8974394 53.1129453, 49.897706 53.1126774, 49.8975412 53.1126183, 49.8972746 53.1128861))",,,POINT (49.89749029389143 53.11278178628851),53.11278178628851,49.89749029389143,"Vokzal'naya ulitsa, 58, Novokuybyshevsk"
275,2434,,"POLYGON ((49.9436126 53.1048622, 49.944196 53.104889, 49.9442108 53.1047733, 49.9436273 53.1047466, 49.9436126 53.1048622))",,,POINT (49.943911718896004 53.104817775571405),53.104817775571405,49.943911718896,"ulitsa Suvorova, 16/1, Novokuybyshevsk"
276,2436,,"POLYGON ((49.9453832 53.105913, 49.9453818 53.105603, 49.9451208 53.1056035, 49.9451221 53.1059134, 49.9453832 53.105913))",,,POINT (49.94525198207356 53.105758234839044),53.10575823483904,49.94525198207356,"ulitsa Suvorova, 10В, Novokuybyshevsk"
277,2437,,"POLYGON ((49.942171 53.1052123, 49.9442506 53.1053403, 49.9442617 53.1052753, 49.9421821 53.1051473, 49.942171 53.1052123))",,,POINT (49.943216350000014 53.105243800000004),53.1052438,49.943216350000014,"ulitsa Michurina, 14Б, Novokuybyshevsk"
278,2438,,"POLYGON ((49.9420946 53.105205, 49.9421034 53.1051393, 49.9405467 53.1050644, 49.940538 53.1051302, 49.9420946 53.105205))",,,POINT (49.941320488439544 53.1051347156306),53.1051347156306,49.94132048843954,"ulitsa Michurina, 14А, Novokuybyshevsk"
279,2439,,"POLYGON ((49.9386756 53.1050674, 49.9404817 53.1050577, 49.9404799 53.1049396, 49.9386739 53.1049492, 49.9386756 53.1050674))",,,POINT (49.939577648314874 53.10500347623013),53.10500347623013,49.93957764831488,"ulitsa Michurina, 4А, Novokuybyshevsk"
280,2441,,"POLYGON ((49.9003456 53.0677455, 49.9008825 53.0679392, 49.9009792 53.0678424, 49.9008357 53.0677906, 49.9008819 53.0677443, 49.9008017 53.0677154, 49.9007548 53.0677623, 49.9004418 53.0676493, 49.9003456 53.0677455))",,,POINT (49.90067308771729 53.067791515074255),53.067791515074255,49.90067308771729,"Promyshlennaya ulitsa, 19, Novokuybyshevsk"
281,2443,,"POLYGON ((49.9036989 53.0687991, 49.9046037 53.0691307, 49.9060116 53.067744, 49.9051067 53.0674123, 49.9036989 53.0687991))",,,POINT (49.90485524153255 53.06827150532236),53.06827150532236,49.90485524153255,"Promyshlennaya ulitsa, 17, Novokuybyshevsk"
282,2448,,"POLYGON ((49.923836 53.0797537, 49.9239948 53.0798089, 49.9247339 53.0790408, 49.9245752 53.0789857, 49.923836 53.0797537))",,,POINT (49.92428491877926 53.079397334586936),53.079397334586936,49.92428491877926,"Promyshlennaya ulitsa, Novokuybyshevsk, Samara 446200"
283,2450,,"POLYGON ((49.907519 53.072216, 49.9068511 53.0729246, 49.9070981 53.0730086, 49.9077659 53.0723, 49.907519 53.072216))",,,POINT (49.90730850718637 53.07261231785241),53.07261231785241,49.90730850718637,"Promyshlennaya ulitsa, 48В, Novokuybyshevsk"
284,2451,,"POLYGON ((49.9079549 53.0723655, 49.9084815 53.072563, 49.9085927 53.072456, 49.9080661 53.0722585, 49.9079549 53.0723655))",,,POINT (49.908273799999996 53.072410749999996),53.07241075,49.9082738,"Promyshlennaya ulitsa, 42, Novokuybyshevsk"
285,2456,,"POLYGON ((49.9686306 53.0862829, 49.9685532 53.0863357, 49.9693074 53.0867349, 49.9693849 53.0866822, 49.9686306 53.0862829))",,,POINT (49.96896899463185 53.0865089074866),53.0865089074866,49.96896899463185,"Vishnevaya ulitsa, 63, Novokuybyshevsk"
286,2463,,"POLYGON ((49.9621362 53.0842529, 49.9623831 53.0843468, 49.9624815 53.0842535, 49.9622346 53.0841596, 49.9621362 53.0842529))",,,POINT (49.96230885 53.08425320000001),53.08425320000001,49.96230885,"ulitsa Druzhby, 24, Novokuybyshevsk"
287,2471,,"POLYGON ((49.9687205 53.0823233, 49.9688388 53.0823668, 49.9689127 53.082294, 49.9687945 53.0822506, 49.9687205 53.0823233))",,,POINT (49.96881662358708 53.0823086848191),53.0823086848191,49.96881662358708,"Yuzhnaya ulitsa, 47, Novokuybyshevsk"
288,2472,,"POLYGON ((49.9683367 53.08265, 49.968455 53.0826935, 49.9685289 53.0826207, 49.9684107 53.0825773, 49.9683367 53.08265))",,,POINT (49.96843282358709 53.0826353848191),53.0826353848191,49.96843282358709,"Voskresenskaya ulitsa, 48, Novokuybyshevsk"
289,2493,,"POLYGON ((49.9949912 53.0934493, 49.9950879 53.0935086, 49.9951891 53.0934492, 49.9950925 53.0933899, 49.9949912 53.0934493))",,,POINT (49.99509016666634 53.093449250008426),53.093449250008426,49.99509016666634,"Zheleznodorozhnaya ulitsa, 117, Novokuybyshevsk"
290,2496,,"POLYGON ((49.9958489 53.0933589, 49.9959456 53.0934182, 49.9960468 53.0933588, 49.9959502 53.0932995, 49.9958489 53.0933589))",,,POINT (49.99594786666634 53.09335885000843),53.09335885000843,49.99594786666634,"Zheleznodorozhnaya ulitsa, 64, Novokuybyshevsk"
291,2504,,"POLYGON ((49.9932837 53.0948575, 49.9933804 53.0949168, 49.9934816 53.0948574, 49.993385 53.0947981, 49.9932837 53.0948575))",,,POINT (49.99338266666634 53.094857450008426),53.094857450008426,49.99338266666634,"Zheleznodorozhnaya ulitsa, 44, Novokuybyshevsk"
292,2511,,"POLYGON ((49.9955754 53.0935172, 49.9956721 53.0935765, 49.9957733 53.0935171, 49.9956767 53.0934578, 49.9955754 53.0935172))",,,POINT (49.99567436666634 53.093517150008424),53.09351715000842,49.99567436666634,"Zheleznodorozhnaya ulitsa, 62, Novokuybyshevsk"
293,2513,,"POLYGON ((49.9964668 53.0918743, 49.9966247 53.0919564, 49.9967385 53.0918775, 49.9965807 53.0917954, 49.9964668 53.0918743))",,,POINT (49.99660266661285 53.09187589980308),53.09187589980308,49.99660266661285,"Novaya ulitsa, 19, Novokuybyshevsk"
294,2522,Храм во имя Святителя Николая,"POLYGON ((49.9911106 53.0871778, 49.9914332 53.08724, 49.9914901 53.0871335, 49.9912014 53.0870779, 49.99117 53.0871367, 49.9911361 53.0871302, 49.9911106 53.0871778))",,,POINT (49.99130848725012 53.08715885520543),53.08715885520543,49.99130848725012,"ulitsa Karbysheva, 5, Novokuybyshevsk"
295,2525,,"POLYGON ((49.9711531 53.0880771, 49.9712541 53.0881341, 49.9713512 53.0880721, 49.9712503 53.0880151, 49.9711531 53.0880771))",Вишнёвая улица,,POINT (49.97125216668009 53.08807460042033),53.08807460042033,49.97125216668009,"Vishnevaya ulitsa, 69А, Novokuybyshevsk"
296,2530,,"POLYGON ((49.9661601 53.1020505, 49.9665047 53.1021609, 49.9666264 53.102024, 49.9662818 53.1019136, 49.9661601 53.1020505))",,,POINT (49.96639325 53.10203724999999),53.10203724999999,49.96639325,"Oktyabr'skaya ulitsa, 100, Novokuybyshevsk"
297,2531,,"POLYGON ((49.9986846 53.0995587, 49.9990037 53.099392, 49.9991014 53.0994594, 49.9995627 53.0992185, 49.9994544 53.0991437, 49.9995098 53.0991148, 49.9979231 53.0980198, 49.9974324 53.0982761, 49.9986618 53.0991245, 49.9983167 53.0993048, 49.9986846 53.0995587))",,,POINT (49.99854000692624 53.0988128409879),53.0988128409879,49.99854000692624,"Zheleznodorozhnyy proyezd, 1А, Novokuybyshevsk"
298,2532,,"POLYGON ((49.940364 53.1137756, 49.9407097 53.113745, 49.9406691 53.1135796, 49.9403234 53.1136102, 49.940364 53.1137756))",,,POINT (49.94051654999999 53.11367760000001),53.11367760000001,49.94051654999999,"prospekt Mira, 2, Novokuybyshevsk"
299,2533,,"POLYGON ((49.9853247 53.0936785, 49.9857956 53.0934539, 49.985696 53.0933786, 49.9852252 53.0936032, 49.9853247 53.0936785))",,,POINT (49.98551039132377 53.093528543546086),53.093528543546086,49.98551039132377,"prospekt Pobedy, 33Б, Novokuybyshevsk"
300,2536,,"POLYGON ((49.9124018 53.0770133, 49.9130133 53.0772389, 49.9131421 53.0771358, 49.9125198 53.0768909, 49.9124018 53.0770133))",,,POINT (49.91276474172054 53.0770675195922),53.0770675195922,49.91276474172054,"Promyshlennaya ulitsa, 28, Novokuybyshevsk"
301,2539,,"POLYGON ((49.9518566 53.1050484, 49.9520123 53.1050529, 49.952021 53.1049434, 49.9518653 53.104939, 49.9518566 53.1050484))",,,POINT (49.95193881179093 53.104995925802626),53.10499592580263,49.95193881179093,"Kommunisticheskaya ulitsa, 11А, Novokuybyshevsk"
302,2540,,"POLYGON ((49.9483152 53.1011883, 49.9484626 53.1013291, 49.9485889 53.1012814, 49.9484416 53.1011406, 49.9483152 53.1011883))",,,POINT (49.948452066010205 53.10123484410749),53.10123484410749,49.948452066010205,"Kommunisticheskaya ulitsa, 30, Novokuybyshevsk"
303,2544,,"POLYGON ((49.8912006 53.1038609, 49.8910289 53.1039382, 49.8944407 53.106418, 49.8946016 53.10636, 49.8912006 53.1038609))",,,POINT (49.892777201199415 53.10511443449905),53.10511443449905,49.892777201199415,"Tovarnaya ulitsa, Novokuybyshevsk, Samara 446200"
304,2545,,"POLYGON ((49.9272924 53.0951514, 49.927464 53.0952159, 49.927228 53.0954542, 49.9270563 53.0953898, 49.9272924 53.0951514))",,,POINT (49.927260168902215 53.09530282282211),53.09530282282211,49.927260168902215,"Nauchnaya ulitsa, 2, Novokuybyshevsk"
305,2546,,"POLYGON ((49.9021976 53.0855252, 49.90238 53.0854737, 49.9029915 53.086466, 49.9027984 53.0865111, 49.9021976 53.0855252))",,,POINT (49.90259357525719 53.0859965381895),53.0859965381895,49.90259357525719,"Proizvodstvennaya ulitsa, 2-П, Novokuybyshevsk"
306,2547,,"POLYGON ((49.9053841 53.0790679, 49.9054485 53.0791259, 49.9054055 53.0791581, 49.9054592 53.0791903, 49.9056201 53.0791323, 49.9055343 53.0790099, 49.9053841 53.0790679))",,,POINT (49.90550121842633 53.07910228735881),53.07910228735881,49.90550121842633,"Promyshlennaya ulitsa, 30, Novokuybyshevsk"
307,2548,,"POLYGON ((49.9277644 53.0994613, 49.9282365 53.0996352, 49.9290733 53.0988235, 49.9285906 53.0986432, 49.9277644 53.0994613))",,,POINT (49.928417916250105 53.09913899994322),53.09913899994322,49.928417916250105,"Nauchnaya ulitsa, 5А, Novokuybyshevsk"
308,2550,,"POLYGON ((49.9294298 53.1118258, 49.9293225 53.1119289, 49.9298696 53.1121285, 49.9299662 53.1120255, 49.9294298 53.1118258))",,,POINT (49.92964560510467 53.11197681977077),53.11197681977077,49.92964560510467,"ulitsa Osipenko, 10К2, Novokuybyshevsk"
309,2554,,"POLYGON ((49.9220822 53.1056627, 49.9225328 53.105814, 49.9224255 53.1059235, 49.9219749 53.1057689, 49.9220822 53.1056627))",,,POINT (49.92225466019784 53.10579261549547),53.10579261549547,49.92225466019784,"ulitsa Osipenko, 14, Novokuybyshevsk"
310,2557,,"POLYGON ((49.9256409 53.0952726, 49.9258984 53.0953563, 49.9256302 53.095614, 49.9253834 53.0955238, 49.9256409 53.0952726))",,,POINT (49.92563910072948 53.09544164183393),53.09544164183393,49.92563910072948,"Nauchnaya ulitsa, 1, Novokuybyshevsk"
311,2558,,"POLYGON ((49.9217034 53.1170041, 49.922433 53.117281, 49.9221648 53.1175386, 49.9214298 53.1172681, 49.9217034 53.1170041))",,,POINT (49.921931358776206 53.11727239299064),53.11727239299064,49.921931358776206,"Molodogvardeyskaya ulitsa, 26С9, Novokuybyshevsk"
312,2560,,"POLYGON ((49.979997 53.0938856, 49.9801515 53.0938281, 49.9800658 53.093745, 49.9799112 53.0938025, 49.979997 53.0938856))",,,POINT (49.98003136749246 53.09381529831242),53.09381529831242,49.98003136749246,"ulitsa Sverdlova, 13А, Novokuybyshevsk"
313,2561,,"POLYGON ((49.983004 53.095429, 49.9828924 53.0953619, 49.9828183 53.0954064, 49.98293 53.0954734, 49.983004 53.095429))",,,POINT (49.98291116009253 53.09541766383822),53.09541766383822,49.98291116009253,"ulitsa Sverdlova, 5, Novokuybyshevsk"
314,2562,,"POLYGON ((49.988509 53.0932092, 49.9886025 53.0931554, 49.9885339 53.0931154, 49.9884445 53.0931709, 49.988509 53.0932092))",,,POINT (49.988522912161976 53.09316250692925),53.09316250692925,49.988522912161976,"ulitsa Voroshilova, 12, Novokuybyshevsk"
315,2563,Подстанция,"POLYGON ((49.9677003 53.0959027, 49.9678022 53.0959361, 49.96785 53.0958835, 49.9677482 53.0958501, 49.9677003 53.0959027))",,,POINT (49.96777516790885 53.095893101978284),53.09589310197829,49.96777516790885,"ulitsa Dzerzhinskogo, 25, Novokuybyshevsk"
316,2564,,"POLYGON ((49.9592275 53.0864049, 49.9592778 53.0863854, 49.959292 53.0863987, 49.9593763 53.086366, 49.9593607 53.0863515, 49.9594121 53.0863315, 49.9593616 53.0862846, 49.9591758 53.0863568, 49.9592275 53.0864049))",,,POINT (49.95929765252664 53.08634823572126),53.08634823572126,49.95929765252664,"ulitsa Dzerzhinskogo, 6Б, Novokuybyshevsk"
317,2565,,"POLYGON ((49.9632701 53.0870423, 49.963215 53.0869869, 49.963146 53.0870117, 49.9632011 53.0870671, 49.9632701 53.0870423))",,,POINT (49.96320805 53.087027000000006),53.087027000000006,49.96320805,"Kiyevskaya ulitsa, 11B, Novokuybyshevsk"
318,2566,,"POLYGON ((49.9729319 53.0892178, 49.973026 53.089179, 49.9729463 53.0891093, 49.9728522 53.0891481, 49.9729319 53.0892178))",,,POINT (49.9729391 53.08916355),53.08916355,49.9729391,"ulitsa Sverdlova, 24, Novokuybyshevsk"
319,2567,,"POLYGON ((49.9740845 53.0907712, 49.9741728 53.0907896, 49.97422 53.0907076, 49.9741318 53.0906892, 49.9740845 53.0907712))",,,POINT (49.974152269347435 53.090739406564616),53.090739406564616,49.97415226934744,"Kiyevskaya ulitsa, 88А, Novokuybyshevsk"
320,2568,,"POLYGON ((49.9755271 53.0913512, 49.9756645 53.0913014, 49.9755735 53.0912108, 49.9754361 53.0912607, 49.9755271 53.0913512))",,,POINT (49.97555030520174 53.091281017593595),53.0912810175936,49.97555030520174,"ulitsa Sverdlova, 22А, Novokuybyshevsk"
321,2569,,"POLYGON ((49.9682721 53.0933298, 49.9683446 53.0932899, 49.9682378 53.0932198, 49.9681654 53.0932596, 49.9682721 53.0933298))",,,POINT (49.96825498974719 53.09327478723589),53.09327478723589,49.96825498974719,"ulitsa Dzerzhinskogo, 32, Novokuybyshevsk"
322,2570,,"POLYGON ((49.9731142 53.0934855, 49.9732422 53.093438, 49.973188 53.0933853, 49.97306 53.0934329, 49.9731142 53.0934855))",,,POINT (49.97315111202748 53.09343541700333),53.09343541700333,49.97315111202748,"Kiyevskaya ulitsa, 33, Novokuybyshevsk"
323,2571,,"POLYGON ((49.9703125 53.0941722, 49.9703944 53.0941415, 49.9701921 53.0939468, 49.9701101 53.0939775, 49.9703125 53.0941722))",,,POINT (49.97025225924389 53.09405948610388),53.09405948610388,49.97025225924389,"Shkol'nyy pereulok, 36А, Novokuybyshevsk"
324,2572,,"POLYGON ((49.9555425 53.0908058, 49.9556392 53.0908107, 49.9556468 53.0907563, 49.9555501 53.0907514, 49.9555425 53.0908058))",,,POINT (49.955594649999995 53.09078105),53.09078105,49.95559465,"ulitsa Gagarina, 26А, Novokuybyshevsk"
325,2573,,"POLYGON ((49.9509088 53.0906009, 49.9510284 53.0906084, 49.9510422 53.0905292, 49.9509226 53.0905216, 49.9509088 53.0906009))",,,POINT (49.95097548772612 53.09056502326364),53.09056502326364,49.95097548772612,"ulitsa Gagarina, 14А, Novokuybyshevsk"
326,2574,,"POLYGON ((49.948624 53.0939782, 49.9487522 53.0939865, 49.9487918 53.093763, 49.9486636 53.0937548, 49.948624 53.0939782))",,,POINT (49.94870790427614 53.093870627849284),53.09387062784928,49.94870790427614,"ulitsa Mironova, 12, Novokuybyshevsk"
327,2575,,"POLYGON ((49.9476649 53.0940246, 49.9478024 53.094033, 49.9478162 53.0939517, 49.9476787 53.0939432, 49.9476649 53.0940246))",,,POINT (49.94774053620051 53.0939881233156),53.0939881233156,49.94774053620051,"ulitsa Mironova, 10А, Novokuybyshevsk"
328,2576,,"POLYGON ((49.9450421 53.096245, 49.9453458 53.0962616, 49.9453575 53.0961848, 49.9450537 53.0961681, 49.9450421 53.096245))",,,POINT (49.945199744489514 53.09621487089959),53.09621487089959,49.94519974448952,"Kommunisticheskaya ulitsa, 42, Novokuybyshevsk"
329,2577,,"POLYGON ((49.9500373 53.1081958, 49.9501699 53.1081956, 49.9501696 53.1081427, 49.950037 53.1081429, 49.9500373 53.1081958))",,,POINT (49.95010345 53.108169249999996),53.10816925,49.95010345,"ulitsa Suvorova, 15А, Novokuybyshevsk"
330,2578,,"POLYGON ((49.9547333 53.1064941, 49.9548814 53.1064399, 49.9548236 53.106383, 49.9546755 53.1064372, 49.9547333 53.1064941))",,,POINT (49.95477844999999 53.10643854999999),53.10643854999999,49.95477844999999,"ulitsa Bocharikova, 6В, Novokuybyshevsk"
331,2579,,"POLYGON ((49.9498797 53.1057247, 49.9500074 53.1056736, 49.949957 53.1056282, 49.9498293 53.1056793, 49.9498797 53.1057247))",,,POINT (49.949918350000004 53.105676450000004),53.10567645,49.94991835,"ulitsa L'va Tolstogo, 1А, Novokuybyshevsk"
332,2580,,"POLYGON ((49.9676529 53.0737143, 49.967758 53.0736683, 49.9677783 53.0735911, 49.9677018 53.073528, 49.9675734 53.0735158, 49.9674682 53.0735617, 49.9674479 53.0736389, 49.9675244 53.0737021, 49.9676529 53.0737143))",,,POINT (49.967613096244825 53.07361504128022),53.07361504128022,49.967613096244825,"Novokuybyshevsk, Samara 446213, Russia"
333,2582,,"POLYGON ((49.9671643 53.0740844, 49.9672695 53.0740384, 49.9672898 53.0739613, 49.9672133 53.0738981, 49.9670849 53.0738859, 49.9669797 53.0739318, 49.9669594 53.074009, 49.9670359 53.0740722, 49.9671643 53.0740844))",,,POINT (49.96712458508355 53.073985142071066),53.073985142071066,49.96712458508355,"Shosseynaya ulitsa, Voskresenka, Samara 446213"
334,2584,,"POLYGON ((49.9677589 53.0743326, 49.967864 53.0742867, 49.9678843 53.0742095, 49.9678078 53.0741463, 49.9676794 53.0741341, 49.9675742 53.0741801, 49.9675539 53.0742572, 49.9676304 53.0743204, 49.9677589 53.0743326))",,,POINT (49.96771911845372 53.07423336067273),53.07423336067273,49.96771911845372,"2/1, Voskresenka, Samara 446213"
335,2586,,"POLYGON ((49.9688566 53.0754747, 49.9689617 53.0754287, 49.968982 53.0753516, 49.9689056 53.0752884, 49.9687771 53.0752762, 49.9686719 53.0753221, 49.9686517 53.0753993, 49.9687281 53.0754625, 49.9688566 53.0754747))",,,POINT (49.96881681802295 53.075375436692376),53.075375436692376,49.96881681802295,"Shosseynaya ulitsa, 2/1, Novokuybyshevsk"
336,2587,,"POLYGON ((49.9745257 53.0746226, 49.9747911 53.0746188, 49.9747718 53.0741244, 49.9745065 53.0741281, 49.9745257 53.0746226))",,,POINT (49.97464877122122 53.07437349118618),53.07437349118618,49.97464877122122,"Shosseynaya ulitsa, 10-АС1, Novokuybyshevsk"
337,2588,,"POLYGON ((49.9707801 53.0746454, 49.970961 53.0747238, 49.9711921 53.0745313, 49.9710111 53.0744529, 49.9707801 53.0746454))",,,POINT (49.97098608423304 53.07458834513513),53.07458834513513,49.97098608423304,"Shosseynaya ulitsa, 4, Novokuybyshevsk"
338,2591,,"POLYGON ((49.9672868 53.0747444, 49.967392 53.0746985, 49.9674123 53.0746213, 49.9673358 53.0745581, 49.9672073 53.0745459, 49.9671022 53.0745919, 49.9670819 53.0746691, 49.9671584 53.0747322, 49.9672868 53.0747444))",,,POINT (49.96724710375519 53.07464515871978),53.07464515871978,49.96724710375519,"Shosseynaya ulitsa, 2/1, Voskresenka"
339,2594,,"POLYGON ((49.9729875 53.074724, 49.9730012 53.0750712, 49.9748379 53.0750449, 49.9748241 53.0746977, 49.9729875 53.074724))",,,POINT (49.97391267569324 53.0748844515654),53.0748844515654,49.97391267569324,"Shosseynaya ulitsa, 8А, Novokuybyshevsk"
340,2605,,"POLYGON ((49.9612265 53.1001864, 49.9621598 53.0998296, 49.9620916 53.0997652, 49.9611584 53.1001221, 49.9612265 53.1001864))",,,POINT (49.96165919388807 53.09997577950643),53.09997577950643,49.96165919388807,"prospekt Pobedy, 10, Novokuybyshevsk"
341,2606,,"POLYGON ((49.9640247 53.1010541, 49.9639933 53.1011415, 49.9641886 53.1011669, 49.9642201 53.1010794, 49.9640247 53.1010541))",,,POINT (49.964106695914154 53.10111047532509),53.10111047532509,49.96410669591416,"prospekt Pobedy, 1Г, Novokuybyshevsk"
342,2607,,"POLYGON ((49.958463 53.0994881, 49.9583996 53.0994229, 49.9583037 53.0994565, 49.9583671 53.0995217, 49.958463 53.0994881))",,,POINT (49.95838335 53.0994723),53.0994723,49.95838335,"ulitsa Pirogova, 16В, Novokuybyshevsk"
343,2608,,"POLYGON ((49.9602719 53.0897778, 49.9603933 53.0898858, 49.9605676 53.0898151, 49.9604462 53.0897071, 49.9602719 53.0897778))",,,POINT (49.96041975 53.089796449999994),53.08979645,49.96041975,"Molodezhnaya ulitsa, 1, Novokuybyshevsk"
344,2614,,"POLYGON ((49.8738896 53.067595, 49.8741506 53.0676919, 49.8747277 53.0671307, 49.8744667 53.0670338, 49.8738896 53.067595))",,,POINT (49.87430865 53.067362849999995),53.06736285,49.87430865,"Promyshlennaya ulitsa, 70, Novokuybyshevsk"
345,2616,,"POLYGON ((49.8772914 53.0757652, 49.8774948 53.0755655, 49.8793583 53.0762504, 49.879155 53.0764501, 49.8772914 53.0757652))",,,POINT (49.878324853541116 53.07600779300635),53.07600779300635,49.87832485354112,"ulitsa Energetikov, 1-В, Novokuybyshevsk"
346,2618,,"POLYGON ((49.8703211 53.0676285, 49.8704773 53.0674731, 49.8713718 53.0677977, 49.8712156 53.0679531, 49.8703211 53.0676285))",,,POINT (49.87084645 53.067713100000006),53.067713100000006,49.87084645,"68, Novokuybyshevsk, Samara 446200"
347,2626,,"POLYGON ((49.8763218 53.0684678, 49.8772548 53.0688153, 49.8774138 53.0686612, 49.8764809 53.0683137, 49.8763218 53.0684678))",,,POINT (49.876867810400164 53.068564495938396),53.0685644959384,49.87686781040016,"Promyshlennaya ulitsa, 72, Novokuybyshevsk"
348,2632,,"POLYGON ((49.8631518 53.0629548, 49.8632761 53.0630472, 49.863487 53.0629448, 49.8633627 53.0628524, 49.8631518 53.0629548))",,,POINT (49.8633194 53.0629498),53.0629498,49.8633194,"Promyshlennaya ulitsa, 58, Novokuybyshevsk"
349,2641,,"POLYGON ((49.8645905 53.0624758, 49.8651592 53.0622023, 49.8653405 53.0623385, 49.8647719 53.062612, 49.8645905 53.0624758))",,,POINT (49.86496551317877 53.062407153689634),53.062407153689634,49.86496551317877,"Promyshlennaya ulitsa, 64, Novokuybyshevsk"
350,2643,,"POLYGON ((49.8378087 53.0622093, 49.8379411 53.0621386, 49.8380006 53.0621788, 49.8378681 53.0622495, 49.8378087 53.0622093))",,,POINT (49.83790463528075 53.062194047041544),53.06219404704154,49.83790463528075,"3-ya Promyshlennaya ulitsa, Novokuybyshevsk, Samara 446200"
351,2646,,"POLYGON ((49.8738982 53.0661597, 49.8740688 53.0662247, 49.8743146 53.0659917, 49.874144 53.0659267, 49.8738982 53.0661597))",,,POINT (49.874106399999995 53.066075700000006),53.066075700000006,49.8741064,"Promyshlennaya ulitsa, 68, Novokuybyshevsk"
352,2663,,"POLYGON ((49.8747494 53.0686411, 49.8748977 53.068494, 49.8770158 53.0692652, 49.8768675 53.0694122, 49.8747494 53.0686411))",,,POINT (49.875882512633886 53.0689530926086),53.0689530926086,49.875882512633886,"Promyshlennaya ulitsa, 70А, Novokuybyshevsk"
353,2672,,"POLYGON ((49.8771103 53.067391, 49.8773417 53.0671598, 49.877011 53.0670404, 49.8767797 53.0672716, 49.876807 53.0672815, 49.8769815 53.0673445, 49.8771103 53.067391))",,,POINT (49.87706067203001 53.06721570328553),53.06721570328553,49.87706067203001,"Promyshlennaya ulitsa, 70К1, Novokuybyshevsk"
354,2677,,"POLYGON ((49.8897191 53.0740088, 49.8899857 53.0737375, 49.8897369 53.0736492, 49.8894703 53.0739205, 49.8897191 53.0740088))",,,POINT (49.889728000000005 53.07382900000001),53.07382900000001,49.889728000000005,"2-ya Promyshlennaya ulitsa, 1, Novokuybyshevsk"
355,2678,,"POLYGON ((49.8947616 53.0746777, 49.8950299 53.0747652, 49.8955911 53.0741443, 49.8953228 53.0740568, 49.8947616 53.0746777))",,,POINT (49.89517634999999 53.074411),53.074411,49.89517634999999,"2-ya Promyshlennaya ulitsa, 5, Novokuybyshevsk"
356,2679,,"POLYGON ((49.8957338 53.0751524, 49.8959273 53.0749609, 49.8970407 53.0753668, 49.8968472 53.0755583, 49.8957338 53.0751524))",,,POINT (49.89638725 53.075259599999995),53.0752596,49.89638725,"2-ya Promyshlennaya ulitsa, 5А, Novokuybyshevsk"
